$GPGGA,011656.3,3959.436706,N,07519.602727,W,1,08,1.6,111.8,M,-39.0,M,,*63
$GPRMC,011656.3,A,3959.436706,N,07519.602727,W,0.0,0.0,050313,9.6,W,A*02
$GPVTG,0.0,T,9.6,M,0.0,N,0.0,K,A*2C
$GPGSA,A,3,03,06,13,16,19,21,23,30,,,,,2.5,1.6,1.9*33
$GPGSV,4,1,16,23,56,222,53,16,55,039,52,19,42,172,51,06,63,094,49*7A
$GPGSV,4,2,16,03,66,153,49,30,29,060,42,13,58,275,41,21,07,054,25*71
$GPGSV,4,3,16,20,,,,32,,,,27,13,060,,01,,,*4A
$GPGSV,4,4,16,08,,,,28,,,,25,,,,24,,,*7D
$GPGGA,011700.3,3959.436706,N,07519.602728,W,1,08,1.6,111.8,M,-39.0,M,,*6E
$GPRMC,011700.3,A,3959.436706,N,07519.602728,W,0.0,0.0,050313,9.6,W,A*0F
$GPVTG,0.0,T,9.6,M,0.0,N,0.0,K,A*2C
$GPGSA,A,3,03,06,13,16,19,21,23,30,,,,,3.5,1.6,3.1*38
$GPGSV,4,1,16,23,56,222,53,16,55,039,52,19,42,172,51,06,63,094,50*72
$GPGSV,4,2,16,03,66,153,49,30,29,060,42,13,58,275,42,20,,,*42
$GPGSV,4,3,16,32,,,,27,13,060,,01,,,,08,,,*40
$GPGSV,4,4,16,28,,,,25,,,,24,,,,22,,,*75
$GPGGA,011704.3,3959.436706,N,07519.602728,W,1,08,1.2,111.8,M,-39.0,M,,*6E
$GPRMC,011704.3,A,3959.436706,N,07519.602728,W,0.0,0.0,050313,9.6,W,A*0B
$GPVTG,0.0,T,9.6,M,0.0,N,0.0,K,A*2C
$GPGSA,A,3,03,06,13,16,19,21,23,30,,,,,1.8,1.2,1.4*34
$GPGSV,4,1,16,23,56,222,53,16,55,039,52,19,42,172,51,06,63,094,50*72
$GPGSV,4,2,16,03,66,153,49,30,29,060,42,13,58,275,41,21,07,054,29*7D
$GPGSV,4,3,16,10,04,300,20,20,,,,32,,,,27,13,060,*7F
$GPGSV,4,4,16,01,,,,08,,,,28,,,,25,,,*7A
$GPGGA,011708.3,3959.436706,N,07519.602728,W,1,08,1.6,111.8,M,-39.0,M,,*66
$GPRMC,011708.3,A,3959.436706,N,07519.602728,W,0.0,0.0,050313,9.6,W,A*07
$GPVTG,0.0,T,9.6,M,0.0,N,0.0,K,A*2C
$GPGSA,A,3,03,06,13,16,19,21,23,30,,,,,2.5,1.6,1.9*33
$GPGSV,4,1,16,23,56,222,53,19,42,172,52,16,55,039,52,06,63,094,50*71
$GPGSV,4,2,16,03,67,153,48,30,29,060,43,13,58,275,42,21,07,054,29*7F
$GPGSV,4,3,16,20,,,,32,,,,27,13,060,,01,,,*4A
$GPGSV,4,4,16,08,,,,28,,,,25,,,,24,,,*7D
$GPGGA,011712.3,3959.436705,N,07519.602728,W,1,08,1.2,111.8,M,-39.0,M,,*6A
$GPRMC,011712.3,A,3959.436705,N,07519.602728,W,0.0,0.0,050313,9.6,W,A*0F
$GPVTG,0.0,T,9.6,M,0.0,N,0.0,K,A*2C
$GPGSA,A,3,03,06,13,16,19,21,23,30,,,,,2.0,1.2,1.6*3D
$GPGSV,4,1,16,23,56,222,53,19,42,172,52,16,55,039,52,06,63,094,50*71
$GPGSV,4,2,16,03,67,153,48,30,29,060,43,13,58,275,43,07,22,303,33*77
$GPGSV,4,3,16,21,07,054,29,20,,,,32,,,,27,13,060,*75
$GPGSV,4,4,16,01,,,,08,,,,28,,,,25,,,*7A
$GPGGA,011716.3,3959.436705,N,07519.602728,W,1,08,1.2,111.8,M,-39.0,M,,*6E
$GPRMC,011716.3,A,3959.436705,N,07519.602728,W,0.0,0.0,050313,9.6,W,A*0B
$GPVTG,0.0,T,9.6,M,0.0,N,0.0,K,A*2C
$GPGSA,A,3,03,06,07,13,16,19,23,30,,,,,2.6,1.2,2.2*38
$GPGSV,4,1,16,23,56,222,53,19,42,172,52,16,55,039,51,06,63,092,50*74
$GPGSV,4,2,16,03,67,153,48,30,29,060,43,13,58,275,41,07,22,303,28*7F
$GPGSV,4,3,16,20,,,,32,,,,27,13,060,,01,,,*4A
$GPGSV,4,4,16,08,,,,28,,,,25,,,,24,,,*7D
$GPGGA,011720.3,3959.436705,N,07519.602728,W,1,09,1.6,111.8,M,-39.0,M,,*6E
$GPRMC,011720.3,A,3959.436705,N,07519.602728,W,0.0,0.0,050313,9.6,W,A*0E
$GPVTG,0.0,T,9.6,M,0.0,N,0.0,K,A*2C
$GPGSA,A,3,03,06,07,13,16,19,21,23,30,,,,2.5,1.6,1.9*34
$GPGSV,4,1,16,23,56,222,53,19,42,172,52,16,55,039,51,06,63,092,50*74
$GPGSV,4,2,16,03,67,153,48,30,29,060,43,13,58,275,42,21,07,054,27*71
$GPGSV,4,3,16,10,04,300,,31,08,111,,20,,,,32,,,*77
$GPGSV,4,4,16,27,13,060,,01,,,,08,,,,28,,,*4C
$GPGGA,011724.3,3959.436705,N,07519.602728,W,1,08,1.6,111.8,M,-39.0,M,,*6B
$GPRMC,011724.3,A,3959.436705,N,07519.602728,W,0.0,0.0,050313,9.6,W,A*0A
$GPVTG,0.0,T,9.6,M,0.0,N,0.0,K,A*2C
$GPGSA,A,3,03,06,13,16,19,21,23,30,,,,,3.5,1.6,3.1*38
$GPGSV,4,1,16,23,56,222,53,19,42,172,52,16,55,039,52,06,63,092,49*7F
$GPGSV,4,2,16,03,67,153,48,30,29,060,43,13,58,275,41,10,04,300,*74
$GPGSV,4,3,16,21,07,054,,20,,,,32,,,,27,13,060,*7E
$GPGSV,4,4,16,01,,,,08,,,,28,,,,25,,,*7A
$GPGGA,011728.3,3959.436706,N,07519.602729,W,1,09,1.3,111.8,M,-39.0,M,,*61
$GPRMC,011728.3,A,3959.436706,N,07519.602729,W,0.0,0.0,050313,9.6,W,A*04
$GPVTG,0.0,T,9.6,M,0.0,N,0.0,K,A*2C
$GPGSA,A,3,03,06,10,13,16,19,21,23,30,,,,2.2,1.3,1.7*3E
$GPGSV,4,1,16,19,42,172,53,23,56,222,53,16,55,039,52,06,63,092,49*7E
$GPGSV,4,2,16,03,67,153,48,30,28,060,43,13,58,275,41,10,04,300,19*7D
$GPGSV,4,3,16,20,,,,32,,,,27,13,060,,01,,,*4A
$GPGSV,4,4,16,08,,,,28,,,,25,,,,24,,,*7D
$GPGGA,011732.3,3959.436705,N,07519.602729,W,1,10,1.2,111.8,M,-39.0,M,,*60
$GPRMC,011732.3,A,3959.436705,N,07519.602729,W,0.0,0.0,050313,9.6,W,A*0C
$GPVTG,0.0,T,9.6,M,0.0,N,0.0,K,A*2C
$GPGSA,A,3,03,06,07,10,13,16,19,21,23,30,,,2.6,1.2,2.3*3B
$GPGSV,4,1,16,19,42,172,52,23,56,222,52,16,55,039,51,06,63,092,49*7D
$GPGSV,4,2,16,03,67,153,47,30,28,060,44,13,58,275,42,07,22,303,27*7A
$GPGSV,4,3,16,20,,,,32,,,,27,13,060,,01,,,*4A
$GPGSV,4,4,16,08,,,,28,,,,25,,,,24,,,*7D
$GPGGA,011735.3,3959.436705,N,07519.602729,W,1,08,1.2,111.8,M,-39.0,M,,*6E
$GPRMC,011735.3,A,3959.436705,N,07519.602729,W,0.0,0.0,050313,9.6,W,A*0B
$GPVTG,0.0,T,9.6,M,0.0,N,0.0,K,A*2C
$GPGSA,A,3,03,06,07,13,16,19,23,30,,,,,2.0,1.2,1.7*38
$GPGSV,4,1,16,19,42,171,52,23,56,222,52,16,55,039,52,06,63,092,49*7D
$GPGSV,4,2,16,03,67,153,47,30,28,060,43,13,58,275,41,21,07,054,28*73
$GPGSV,4,3,16,07,22,303,27,20,,,,32,,,,27,13,060,*79
$GPGSV,4,4,16,01,,,,08,,,,28,,,,25,,,*7A
$GPGGA,011739.3,3959.436705,N,07519.602729,W,1,08,1.2,111.8,M,-39.0,M,,*62
$GPRMC,011739.3,A,3959.436705,N,07519.602729,W,0.0,0.0,050313,9.6,W,A*07
$GPVTG,0.0,T,9.6,M,0.0,N,0.0,K,A*2C
$GPGSA,A,3,03,06,10,13,16,19,23,30,,,,,2.1,1.2,1.7*3F
$GPGSV,4,1,16,23,56,222,53,19,42,171,53,16,55,039,52,06,63,092,49*7D
$GPGSV,4,2,16,03,67,153,48,30,28,060,43,13,58,275,41,07,22,303,27*71
$GPGSV,4,3,16,10,04,300,19,20,,,,32,,,,27,13,060,*75
$GPGSV,4,4,16,01,,,,08,,,,28,,,,25,,,*7A
$GPGGA,011742.3,3959.436705,N,07519.602729,W,1,08,1.2,111.8,M,-39.0,M,,*6E
$GPRMC,011742.3,A,3959.436705,N,07519.602729,W,0.0,0.0,050313,9.6,W,A*0B
$GPVTG,0.0,T,9.6,M,0.0,N,0.0,K,A*2C
$GPGSA,A,3,03,06,10,13,16,19,23,30,,,,,2.1,1.2,1.7*3F
$GPGSV,4,1,16,23,56,222,52,19,42,171,52,16,55,039,52,06,63,092,49*7D
$GPGSV,4,2,16,03,67,153,49,30,28,060,44,13,58,275,42,07,22,303,25*76
$GPGSV,4,3,16,10,04,300,19,20,,,,32,,,,27,13,060,*75
$GPGSV,4,4,16,01,,,,08,,,,28,,,,25,,,*7A
$GPGGA,011745.3,3959.436704,N,07519.602728,W,1,08,1.2,111.8,M,-39.0,M,,*69
$GPRMC,011745.3,A,3959.436704,N,07519.602728,W,0.0,0.0,050313,9.6,W,A*0C
$GPVTG,0.0,T,9.6,M,0.0,N,0.0,K,A*2C
$GPGSA,A,3,03,06,07,13,16,19,23,30,,,,,2.6,1.2,2.3*39
$GPGSV,4,1,16,23,56,222,52,19,42,171,52,16,55,039,52,06,63,092,49*7D
$GPGSV,4,2,16,03,67,153,48,30,28,060,43,13,58,275,43,07,22,303,24*70
$GPGSV,4,3,16,20,,,,32,,,,27,13,060,,01,,,*4A
$GPGSV,4,4,16,08,,,,28,,,,25,,,,24,,,*7D
$GPGGA,011748.3,3959.436704,N,07519.602727,W,1,08,1.2,111.8,M,-39.0,M,,*6B
$GPRMC,011748.3,A,3959.436704,N,07519.602727,W,0.0,0.0,050313,9.6,W,A*0E
$GPVTG,0.0,T,9.6,M,0.0,N,0.0,K,A*2C
$GPGSA,A,3,03,06,07,13,16,19,23,30,,,,,2.1,1.2,1.7*39
$GPGSV,4,1,16,19,42,171,52,23,56,222,52,16,55,039,51,06,63,092,48*7F
$GPGSV,4,2,16,03,67,153,48,13,58,275,43,30,28,060,42,07,22,303,27*72
$GPGSV,4,3,16,10,04,300,22,20,,,,32,,,,27,13,060,*7D
$GPGSV,4,4,16,01,,,,08,,,,28,,,,25,,,*7A
$GPGGA,011751.3,3959.436703,N,07519.602727,W,1,08,1.2,111.8,M,-39.0,M,,*64
$GPRMC,011751.3,A,3959.436703,N,07519.602727,W,0.0,0.0,050313,9.6,W,A*01
$GPVTG,0.0,T,9.6,M,0.0,N,0.0,K,A*2C
$GPGSA,A,3,03,06,07,13,16,19,23,30,,,,,2.1,1.2,1.7*39
$GPGSV,4,1,16,19,42,171,52,23,56,222,51,16,55,039,51,03,67,153,48*71
$GPGSV,4,2,16,06,63,092,48,30,28,060,43,13,58,275,43,07,22,303,31*79
$GPGSV,4,3,16,10,04,300,26,20,,,,32,,,,27,12,060,*78
$GPGSV,4,4,16,01,,,,08,,,,28,,,,25,,,*7A
$GPGGA,011754.3,3959.436703,N,07519.602726,W,1,08,0.9,111.8,M,-39.0,M,,*6A
$GPRMC,011754.3,A,3959.436703,N,07519.602726,W,0.0,0.0,050313,9.6,W,A*05
$GPVTG,0.0,T,9.6,M,0.0,N,0.0,K,A*2C
$GPGSA,A,3,03,06,13,16,19,23,30,31,,,,,1.4,0.9,1.1*36
$GPGSV,4,1,16,19,43,171,51,23,56,222,51,16,55,039,50,03,67,153,48*72
$GPGSV,4,2,16,06,63,092,47,13,58,275,42,30,28,060,42,31,08,112,34*7C
$GPGSV,4,3,16,07,22,303,27,10,04,300,26,21,07,054,20,20,,,*4C
$GPGSV,4,4,16,32,,,,27,12,060,,01,,,,08,,,*46
$GPGGA,011757.3,3959.436703,N,07519.602726,W,1,08,1.2,111.8,M,-39.0,M,,*63
$GPRMC,011757.3,A,3959.436703,N,07519.602726,W,0.0,0.0,050313,9.6,W,A*06
$GPVTG,0.0,T,9.6,M,0.0,N,0.0,K,A*2C
$GPGSA,A,3,03,06,13,16,19,23,30,31,,,,,2.1,1.2,1.7*3C
$GPGSV,4,1,16,23,56,222,52,19,43,171,52,16,55,039,51,03,67,153,49*72
$GPGSV,4,2,16,06,63,092,48,30,28,060,43,13,58,275,43,07,22,303,29*70
$GPGSV,4,3,16,10,04,300,21,20,,,,32,,,,27,12,060,*7F
$GPGSV,4,4,16,01,,,,08,,,,28,,,,25,,,*7A
$GPGGA,011800.3,3959.436702,N,07519.602726,W,1,09,1.2,111.8,M,-39.0,M,,*6E
$GPRMC,011800.3,A,3959.436702,N,07519.602726,W,0.0,0.0,050313,9.6,W,A*0A
$GPVTG,0.0,T,9.6,M,0.0,N,0.0,K,A*2C
$GPGSA,A,3,03,06,07,13,16,19,23,30,31,,,,2.6,1.2,2.3*3B
$GPGSV,4,1,16,23,56,222,53,16,55,039,52,19,43,171,52,03,67,153,50*78
$GPGSV,4,2,16,06,63,092,48,30,28,060,43,13,58,275,43,07,22,303,25*7C
$GPGSV,4,3,16,20,,,,32,,,,27,12,060,,01,,,*4B
$GPGSV,4,4,16,08,,,,28,,,,25,,,,24,,,*7D
$GPGGA,011803.3,3959.436702,N,07519.602725,W,1,08,1.2,111.8,M,-39.0,M,,*6F
$GPRMC,011803.3,A,3959.436702,N,07519.602725,W,0.0,0.0,050313,9.6,W,A*0A
$GPVTG,0.0,T,9.6,M,0.0,N,0.0,K,A*2C
$GPGSA,A,3,03,06,07,13,16,19,23,30,,,,,2.6,1.2,2.3*39
$GPGSV,4,1,16,23,56,222,53,19,43,171,52,16,55,039,52,03,67,153,49*70
$GPGSV,4,2,16,06,63,092,48,30,28,060,44,13,58,275,44,07,22,303,31*79
$GPGSV,4,3,16,20,,,,32,,,,27,12,060,,01,,,*4B
$GPGSV,4,4,16,08,,,,28,,,,25,,,,24,,,*7D
$GPGGA,011806.3,3959.436702,N,07519.602724,W,1,08,1.2,111.8,M,-39.0,M,,*6B
$GPRMC,011806.3,A,3959.436702,N,07519.602724,W,0.0,0.0,050313,9.6,W,A*0E
$GPVTG,0.0,T,9.6,M,0.0,N,0.0,K,A*2C
$GPGSA,A,3,03,06,07,13,16,19,23,30,,,,,2.6,1.2,2.3*39
$GPGSV,4,1,16,23,55,222,52,19,43,171,52,16,55,039,51,03,67,153,49*71
$GPGSV,4,2,16,06,63,092,48,13,58,275,42,30,28,060,42,07,22,303,26*7F
$GPGSV,4,3,16,10,04,300,19,20,,,,32,,,,27,12,060,*74
$GPGSV,4,4,16,01,,,,08,,,,28,,,,25,,,*7A
$GPGGA,011809.3,3959.436701,N,07519.602724,W,1,08,1.2,111.8,M,-39.0,M,,*67
$GPRMC,011809.3,A,3959.436701,N,07519.602724,W,0.0,0.0,050313,9.6,W,A*02
$GPVTG,0.0,T,9.6,M,0.0,N,0.0,K,A*2C
$GPGSA,A,3,03,06,07,13,16,19,23,30,,,,,2.6,1.2,2.3*39
$GPGSV,4,1,16,23,55,222,52,19,43,171,51,16,55,039,50,03,67,153,49*73
$GPGSV,4,2,16,06,63,092,47,13,58,275,42,30,28,060,41,07,22,303,25*70
$GPGSV,4,3,16,20,,,,32,,,,27,12,060,,01,,,*4B
$GPGSV,4,4,16,08,,,,28,,,,25,,,,24,,,*7D
$GPGGA,011812.3,3959.436701,N,07519.602723,W,1,08,1.2,111.8,M,-39.0,M,,*6A
$GPRMC,011812.3,A,3959.436701,N,07519.602723,W,0.0,0.0,050313,9.6,W,A*0F
$GPVTG,0.0,T,9.6,M,0.0,N,0.0,K,A*2C
$GPGSA,A,3,03,06,07,13,16,19,23,30,,,,,2.6,1.2,2.3*39
$GPGSV,4,1,16,23,55,222,53,19,43,171,52,16,55,039,51,03,67,153,50*78
$GPGSV,4,2,16,06,63,092,48,13,58,274,43,30,28,060,41,07,22,303,27*7D
$GPGSV,4,3,16,20,,,,32,,,,27,12,060,,01,,,*4B
$GPGSV,4,4,16,08,,,,28,,,,25,,,,24,,,*7D
$GPGGA,011815.3,3959.436701,N,07519.602723,W,1,08,1.2,111.8,M,-39.0,M,,*6D
$GPRMC,011815.3,A,3959.436701,N,07519.602723,W,0.0,0.0,050313,9.6,W,A*08
$GPVTG,0.0,T,9.6,M,0.0,N,0.0,K,A*2C
$GPGSA,A,3,03,06,07,13,16,19,23,30,,,,,2.6,1.2,2.3*39
$GPGSV,4,1,16,23,55,220,52,19,43,171,52,16,55,039,51,03,67,153,50*7B
$GPGSV,4,2,16,06,63,092,48,13,58,274,43,30,28,060,41,07,22,303,28*72
$GPGSV,4,3,16,20,,,,32,,,,27,12,060,,01,,,*4B
$GPGSV,4,4,16,08,,,,28,,,,25,,,,24,,,*7D
$GPGGA,011818.3,3959.436701,N,07519.602723,W,1,08,1.2,111.8,M,-39.0,M,,*60
$GPRMC,011818.3,A,3959.436701,N,07519.602723,W,0.0,0.0,050313,9.6,W,A*05
$GPVTG,0.0,T,9.6,M,0.0,N,0.0,K,A*2C
$GPGSA,A,3,03,06,07,13,16,19,23,30,,,,,2.6,1.2,2.3*39
$GPGSV,4,1,16,23,55,220,51,19,43,171,51,16,55,039,50,03,67,151,49*70
$GPGSV,4,2,16,06,63,092,48,13,58,274,41,30,28,060,39,07,22,303,22*75
$GPGSV,4,3,16,20,,,,32,,,,27,12,060,,01,,,*4B
$GPGSV,4,4,16,08,,,,28,,,,25,,,,24,,,*7D
$GPGGA,011821.3,3959.436701,N,07519.602723,W,1,09,1.6,111.8,M,-39.0,M,,*6F
$GPRMC,011821.3,A,3959.436701,N,07519.602723,W,0.0,0.0,050313,9.6,W,A*0F
$GPVTG,0.0,T,9.6,M,0.0,N,0.0,K,A*2C
$GPGSA,A,3,03,06,07,13,16,19,21,23,30,,,,2.5,1.6,1.9*34
$GPGSV,4,1,16,23,55,220,51,19,43,171,50,16,55,039,49,03,67,151,48*78
$GPGSV,4,2,16,06,63,092,47,13,58,274,41,30,28,060,38,21,07,054,24*7F
$GPGSV,4,3,16,20,,,,32,,,,27,12,060,,01,,,*4B
$GPGSV,4,4,16,08,,,,28,,,,25,,,,24,,,*7D
$GPGGA,011824.3,3959.436701,N,07519.602723,W,1,10,1.6,111.8,M,-39.0,M,,*62
$GPRMC,011824.3,A,3959.436701,N,07519.602723,W,0.0,0.0,050313,9.6,W,A*0A
$GPVTG,0.0,T,9.6,M,0.0,N,0.0,K,A*2C
$GPGSA,A,3,03,06,07,13,16,19,21,23,30,31,,,2.6,1.6,2.1*3E
$GPGSV,4,1,16,23,55,220,52,19,43,171,52,16,55,039,51,03,67,151,49*71
$GPGSV,4,2,16,06,63,092,49,13,58,274,42,30,28,060,42,31,08,112,18*7D
$GPGSV,4,3,16,20,,,,32,,,,27,12,060,,01,,,*4B
$GPGSV,4,4,16,08,,,,28,,,,25,,,,24,,,*7D
$GPGGA,011827.3,3959.436702,N,07519.602723,W,1,10,1.2,111.8,M,-39.0,M,,*66
$GPRMC,011827.3,A,3959.436702,N,07519.602723,W,0.0,0.0,050313,9.6,W,A*0A
$GPVTG,0.0,T,9.6,M,0.0,N,0.0,K,A*2C
$GPGSA,A,3,03,06,07,13,16,19,21,23,30,31,,,2.6,1.2,2.3*38
$GPGSV,4,1,16,23,55,220,52,19,43,171,51,16,55,039,49,03,67,151,49*7B
$GPGSV,4,2,16,06,63,092,48,30,28,060,41,13,58,274,41,07,23,303,27*7E
$GPGSV,4,3,16,20,,,,32,,,,27,12,060,,01,,,*4B
$GPGSV,4,4,16,08,,,,28,,,,25,,,,24,,,*7D
$GPGGA,011830.3,3959.436702,N,07519.602723,W,1,09,1.2,111.8,M,-39.0,M,,*68
$GPRMC,011830.3,A,3959.436702,N,07519.602723,W,0.0,0.0,050313,9.6,W,A*0C
$GPVTG,0.0,T,9.6,M,0.0,N,0.0,K,A*2C
$GPGSA,A,3,03,06,07,13,16,19,23,30,31,,,,2.6,1.2,2.3*3B
$GPGSV,4,1,16,23,55,220,51,19,43,171,50,16,55,039,49,03,67,151,48*78
$GPGSV,4,2,16,06,63,091,47,30,28,060,41,13,58,274,40,07,23,303,24*70
$GPGSV,4,3,16,20,,,,32,,,,27,12,060,,01,,,*4B
$GPGSV,4,4,16,08,,,,28,,,,25,,,,24,,,*7D
$GPGGA,011833.3,3959.436702,N,07519.602723,W,1,09,1.3,111.8,M,-39.0,M,,*6A
$GPRMC,011833.3,A,3959.436702,N,07519.602723,W,0.0,0.0,050313,9.6,W,A*0F
$GPVTG,0.0,T,9.6,M,0.0,N,0.0,K,A*2C
$GPGSA,A,3,03,06,07,10,13,16,19,23,30,,,,2.2,1.3,1.7*3A
$GPGSV,4,1,16,23,55,220,53,19,43,171,52,16,55,039,50,03,67,151,49*71
$GPGSV,4,2,16,06,63,091,48,30,28,060,43,13,58,274,42,10,04,299,22*78
$GPGSV,4,3,16,20,,,,32,,,,27,12,060,,01,,,*4B
$GPGSV,4,4,16,08,,,,28,,,,25,,,,24,,,*7D
$GPGGA,011836.3,3959.436701,N,07519.602722,W,1,09,1.3,111.8,M,-39.0,M,,*6D
$GPRMC,011836.3,A,3959.436701,N,07519.602722,W,0.0,0.0,050313,9.6,W,A*08
$GPVTG,0.0,T,9.6,M,0.0,N,0.0,K,A*2C
$GPGSA,A,3,03,06,07,10,13,16,19,23,30,,,,2.2,1.3,1.7*3A
$GPGSV,4,1,16,23,55,220,52,19,43,171,51,16,55,039,50,06,63,091,48*7E
$GPGSV,4,2,16,03,67,151,48,13,58,274,43,30,28,060,42,10,04,299,21*77
$GPGSV,4,3,16,20,,,,32,,,,27,12,060,,01,,,*4B
$GPGSV,4,4,16,08,,,,28,,,,25,,,,24,,,*7D
$GPGGA,011839.3,3959.436701,N,07519.602722,W,1,09,1.0,111.8,M,-39.0,M,,*61
$GPRMC,011839.3,A,3959.436701,N,07519.602722,W,0.0,0.0,050313,9.6,W,A*07
$GPVTG,0.0,T,9.6,M,0.0,N,0.0,K,A*2C
$GPGSA,A,3,03,06,10,13,16,19,23,30,31,,,,1.5,1.0,1.1*3E
$GPGSV,4,1,16,23,55,220,52,19,43,171,51,16,55,039,50,06,63,091,48*7E
$GPGSV,4,2,16,03,67,151,48,13,58,274,43,30,28,060,42,31,08,112,34*7C
$GPGSV,4,3,16,10,04,299,21,20,,,,32,,,,27,12,060,*7E
$GPGSV,4,4,16,01,,,,08,,,,28,,,,25,,,*7A
$GPGGA,011842.3,3959.436701,N,07519.602721,W,1,09,1.0,111.8,M,-39.0,M,,*6E
$GPRMC,011842.3,A,3959.436701,N,07519.602721,W,0.0,0.0,050313,9.6,W,A*08
$GPVTG,0.0,T,9.6,M,0.0,N,0.0,K,A*2C
$GPGSA,A,3,03,06,10,13,16,19,23,30,31,,,,1.5,1.0,1.1*3E
$GPGSV,4,1,16,23,55,220,52,19,43,171,52,16,55,039,51,03,67,151,49*71
$GPGSV,4,2,16,06,63,091,49,30,28,060,44,13,58,274,43,31,08,112,37*74
$GPGSV,4,3,16,10,04,299,20,20,,,,32,,,,27,12,060,*7F
$GPGSV,4,4,16,01,,,,08,,,,28,,,,25,,,*7A
$GPGGA,011845.3,3959.436700,N,07519.602721,W,1,09,1.2,111.8,M,-39.0,M,,*6A
$GPRMC,011845.3,A,3959.436700,N,07519.602721,W,0.0,0.0,050313,9.6,W,A*0E
$GPVTG,0.0,T,9.6,M,0.0,N,0.0,K,A*2C
$GPGSA,A,3,03,06,07,13,16,19,23,30,31,,,,2.6,1.2,2.3*3B
$GPGSV,4,1,16,23,55,220,52,19,43,171,51,16,55,039,50,03,67,151,49*73
$GPGSV,4,2,16,06,63,091,48,30,28,060,43,13,58,274,42,07,23,303,30*7A
$GPGSV,4,3,16,20,,,,32,,,,27,12,060,,01,,,*4B
$GPGSV,4,4,16,08,,,,28,,,,25,,,,24,,,*7D
