$GPGGA,101014,4146.9951,N,08809.0168,W,1,04,5.6,1529.9,M,34.5,M,,*63
$GPRMC,101014,A,4146.9951,N,08809.0168,W,70.0,206.7,280714,5,E,A*2E
$GPGSV,8,1,32,01,24,113,-6,02,24,216,-6,03,86,201,50,04,87,268,50*7D
$GPGSV,8,2,32,05,86,210,50,06,30,056,00,07,20,298,-11,08,87,006,50*56
$GPGSV,8,3,32,09,88,052,51,10,54,046,24,11,72,199,40,12,82,099,47*77
$GPGSV,8,4,32,13,27,058,-3,14,70,156,38,15,85,227,49,16,24,050,-6*77
$GPGSV,8,5,32,17,81,201,47,18,20,032,-11,19,86,224,50,20,84,118,49*51
$GPGSV,8,6,32,21,90,187,52,22,02,318,00,23,69,092,38,24,53,163,24*71
$GPGSV,8,7,32,25,82,343,47,26,90,127,52,27,03,329,00,28,81,111,47*7C
$GPGSV,8,8,32,29,87,282,51,30,05,096,-25,31,81,244,47,32,15,237,-16*70
$GPGGA,101016,4146.9589,N,08809.0377,W,1,04,5.6,1469.5,M,34.5,M,,*6D
$GPRMC,101016,A,4146.9589,N,08809.0377,W,71.1,203.3,280714,5,E,A*28
$GPGSV,8,1,32,01,24,113,-6,02,24,216,-6,03,86,201,50,04,87,268,50*7D
$GPGSV,8,2,32,05,86,210,50,06,30,056,-0,07,19,298,-11,08,87,006,50*41
$GPGSV,8,3,32,09,88,052,51,10,53,046,24,11,72,199,40,12,82,099,47*70
$GPGSV,8,4,32,13,27,058,-3,14,69,156,38,15,85,227,49,16,24,050,-6*7F
$GPGSV,8,5,32,17,81,201,47,18,19,032,-11,19,86,224,50,20,84,118,49*5B
$GPGSV,8,6,32,21,90,187,52,22,03,318,00,23,70,092,38,24,54,163,24*7F
$GPGSV,8,7,32,25,82,343,47,26,90,127,52,27,02,329,00,28,81,111,47*7D
$GPGSV,8,8,32,29,88,282,51,30,06,096,-25,31,81,244,47,32,15,237,-16*7C
$GPGGA,101018,4146.9212,N,08809.0561,W,1,04,5.6,1406.7,M,34.5,M,,*6C
$GPRMC,101018,A,4146.9212,N,08809.0561,W,72.1,200.0,280714,5,E,A*21
$GPGSV,8,1,32,01,24,113,-7,02,24,216,-7,03,86,201,50,04,87,268,50*7D
$GPGSV,8,2,32,05,86,210,50,06,30,056,-0,07,19,298,-11,08,87,006,50*41
$GPGSV,8,3,32,09,88,052,51,10,53,046,24,11,73,199,41,12,82,099,47*70
$GPGSV,8,4,32,13,27,058,-4,14,69,156,38,15,85,227,49,16,24,050,-7*79
$GPGSV,8,5,32,17,81,201,47,18,19,032,-11,19,86,224,50,20,84,118,49*5B
$GPGSV,8,6,32,21,90,187,52,22,03,318,00,23,70,092,38,24,54,163,24*7F
$GPGSV,8,7,32,25,82,343,47,26,90,127,52,27,02,329,00,28,81,111,47*7D
$GPGSV,8,8,32,29,88,282,51,30,06,096,-24,31,81,244,47,32,15,237,-15*7E
$GPGGA,101020,4146.8824,N,08809.0718,W,1,04,5.6,1342.0,M,34.5,M,,*65
$GPRMC,101020,A,4146.8824,N,08809.0718,W,73.0,196.8,280714,5,E,A*2C
$GPGSV,8,1,32,01,23,114,-7,02,23,217,-7,03,86,202,50,04,87,269,50*79
$GPGSV,8,2,32,05,86,211,50,06,29,057,-1,07,19,299,-12,08,87,007,50*4B
$GPGSV,8,3,32,09,88,053,51,10,53,047,23,11,73,200,41,12,82,100,47*75
$GPGSV,8,4,32,13,26,059,-4,14,69,157,38,15,85,228,49,16,23,051,-7*71
$GPGSV,8,5,32,17,82,202,47,18,19,033,-12,19,87,225,50,20,85,119,49*59
$GPGSV,8,6,32,21,90,188,52,22,03,319,00,23,70,093,39,24,54,164,25*77
$GPGSV,8,7,32,25,82,344,47,26,90,128,52,27,02,330,00,28,82,112,47*7D
$GPGSV,8,8,32,29,88,283,51,30,06,097,-24,31,82,245,47,32,16,238,-15*70
$GPGGA,101022,4146.8426,N,08809.0847,W,1,04,5.6,1275.6,M,34.5,M,,*6F
$GPRMC,101022,A,4146.8426,N,08809.0847,W,73.8,193.6,280714,5,E,A*26
$GPGSV,8,1,32,01,23,114,-7,02,23,217,-7,03,85,202,49,04,86,269,50*73
$GPGSV,8,2,32,05,86,211,50,06,29,057,-1,07,18,299,-12,08,87,007,50*4A
$GPGSV,8,3,32,09,88,053,51,10,53,047,23,11,73,200,41,12,81,100,47*76
$GPGSV,8,4,32,13,26,059,-4,14,69,157,38,15,85,228,49,16,23,051,-7*71
$GPGSV,8,5,32,17,82,202,47,18,18,033,-12,19,87,225,50,20,85,119,49*58
$GPGSV,8,6,32,21,90,188,52,22,03,319,00,23,70,093,39,24,54,164,25*77
$GPGSV,8,7,32,25,82,344,48,26,90,128,52,27,01,330,00,28,82,112,47*71
$GPGSV,8,8,32,29,88,283,51,30,07,097,-24,31,82,245,47,32,16,238,-15*71
$GPGGA,101024,4146.8019,N,08809.0948,W,1,04,5.6,1207.9,M,34.5,M,,*65
$GPRMC,101024,A,4146.8019,N,08809.0948,W,74.4,190.5,280714,5,E,A*2D
$GPGSV,8,1,32,01,23,114,-8,02,23,217,-8,03,85,202,49,04,86,269,50*73
$GPGSV,8,2,32,05,86,211,50,06,29,057,-1,07,18,299,-12,08,87,007,50*4A
$GPGSV,8,3,32,09,88,053,51,10,52,047,23,11,73,200,41,12,81,100,47*77
$GPGSV,8,4,32,13,26,059,-4,14,69,157,37,15,85,228,49,16,23,051,-8*71
$GPGSV,8,5,32,17,82,202,47,18,18,033,-12,19,87,225,50,20,85,119,49*58
$GPGSV,8,6,32,21,90,188,52,22,04,319,00,23,70,093,39,24,55,164,25*71
$GPGSV,8,7,32,25,82,344,48,26,90,128,52,27,01,330,00,28,82,112,47*71
$GPGSV,8,8,32,29,88,283,51,30,07,097,-24,31,82,245,47,32,16,238,-14*70
$GPGGA,101026,4146.7607,N,08809.1021,W,1,04,5.6,1139.2,M,34.5,M,,*63
$GPRMC,101026,A,4146.7607,N,08809.1021,W,74.9,187.5,280714,5,E,A*25
$GPGSV,8,1,32,01,22,114,-8,02,22,217,-8,03,85,202,49,04,86,269,50*73
$GPGSV,8,2,32,05,86,211,50,06,28,057,-2,07,18,299,-13,08,87,007,50*49
$GPGSV,8,3,32,09,89,053,51,10,52,047,23,11,73,200,41,12,81,100,47*76
$GPGSV,8,4,32,13,25,059,-5,14,68,157,37,15,85,228,49,16,22,051,-8*73
$GPGSV,8,5,32,17,82,202,47,18,18,033,-13,19,87,225,50,20,85,119,49*59
$GPGSV,8,6,32,21,90,188,52,22,04,319,00,23,71,093,39,24,55,164,25*70
$GPGSV,8,7,32,25,83,344,48,26,90,128,52,27,01,330,00,28,82,112,47*70
$GPGSV,8,8,32,29,88,283,51,30,07,097,-23,31,82,245,47,32,17,238,-14*76
$GPGGA,101028,4146.7190,N,08809.1065,W,1,04,5.6,1069.8,M,34.5,M,,*6A
$GPRMC,101028,A,4146.7190,N,08809.1065,W,75.2,184.5,280714,5,E,A*2B
$GPGSV,8,1,32,01,22,114,-8,02,22,217,-8,03,85,202,49,04,86,269,50*73
$GPGSV,8,2,32,05,86,211,50,06,28,057,-2,07,17,299,-13,08,87,007,50*46
$GPGSV,8,3,32,09,89,053,51,10,52,047,22,11,74,200,41,12,81,100,47*70
$GPGSV,8,4,32,13,25,059,-5,14,68,157,37,15,85,228,49,16,22,051,-8*73
$GPGSV,8,5,32,17,82,202,47,18,17,033,-13,19,87,225,50,20,85,119,49*56
$GPGSV,8,6,32,21,90,188,52,22,04,319,00,23,71,093,39,24,55,164,26*73
$GPGSV,8,7,32,25,83,344,48,26,90,128,52,27,00,330,00,28,82,112,47*71
$GPGSV,8,8,32,29,88,283,51,30,08,097,-23,31,82,245,47,32,17,238,-14*79
$GPGGA,101030,4146.6772,N,08809.1079,W,1,04,5.6,1000.0,M,34.5,M,,*62
$GPRMC,101030,A,4146.6772,N,08809.1079,W,75.4,181.5,280714,5,E,A*27
$GPGSV,8,1,32,01,22,115,-9,02,22,218,-9,03,85,203,49,04,86,270,50*74
$GPGSV,8,2,32,05,87,212,50,06,28,058,-2,07,17,300,-13,08,87,008,50*45
$GPGSV,8,3,32,09,89,054,51,10,52,048,22,11,74,201,41,12,81,101,47*78
$GPGSV,8,4,32,13,25,060,-5,14,68,158,37,15,85,229,49,16,22,052,-9*75
$GPGSV,8,5,32,17,82,203,47,18,17,034,-13,19,87,226,50,20,85,120,49*59
$GPGSV,8,6,32,21,90,189,52,22,05,320,00,23,71,094,39,24,55,165,26*7F
$GPGSV,8,7,32,25,83,345,48,26,90,129,52,27,00,331,00,28,82,113,47*71
$GPGSV,8,8,32,29,88,284,51,30,08,098,-23,31,82,246,47,32,17,239,-13*74
$GPGGA,101032,4146.6353,N,08809.1065,W,1,04,5.6,930.2,M,34.5,M,,*53
$GPRMC,101032,A,4146.6353,N,08809.1065,W,75.4,178.5,280714,5,E,A*29
$GPGSV,8,1,32,01,21,115,-9,02,21,218,-9,03,85,203,49,04,86,270,50*74
$GPGSV,8,2,32,05,87,212,50,06,28,058,-3,07,17,300,-14,08,86,008,50*42
$GPGSV,8,3,32,09,89,054,51,10,51,048,22,11,74,201,42,12,81,101,46*79
$GPGSV,8,4,32,13,25,060,-6,14,68,158,37,15,84,229,49,16,21,052,-9*74
$GPGSV,8,5,32,17,82,203,48,18,17,034,-14,19,87,226,50,20,85,120,49*51
$GPGSV,8,6,32,21,90,189,52,22,05,320,-25,23,71,094,39,24,56,165,26*56
$GPGSV,8,7,32,25,83,345,48,26,90,129,52,27,00,331,00,28,82,113,48*7E
$GPGSV,8,8,32,29,88,284,51,30,08,098,-22,31,82,246,48,32,17,239,-13*7A
$GPGGA,101034,4146.5937,N,08809.1021,W,1,04,5.6,860.8,M,34.5,M,,*50
$GPRMC,101034,A,4146.5937,N,08809.1021,W,75.2,175.5,280714,5,E,A*2F
$GPGSV,8,1,32,01,21,115,-9,02,21,218,-9,03,85,203,49,04,86,270,50*74
$GPGSV,8,2,32,05,87,212,50,06,27,058,-3,07,17,300,-14,08,86,008,50*4D
$GPGSV,8,3,32,09,89,054,51,10,51,048,22,11,74,201,42,12,81,101,46*79
$GPGSV,8,4,32,13,24,060,-6,14,68,158,37,15,84,229,49,16,21,052,-9*75
$GPGSV,8,5,32,17,82,203,48,18,17,034,-14,19,87,226,50,20,85,120,49*51
$GPGSV,8,6,32,21,90,189,52,22,05,320,-25,23,71,094,40,24,56,165,26*58
$GPGSV,8,7,32,25,83,345,48,26,90,129,52,27,01,331,00,28,82,113,48*7F
$GPGSV,8,8,32,29,88,284,51,30,08,098,-22,31,82,246,48,32,18,239,-13*75
$GPGGA,101036,4146.5524,N,08809.0948,W,1,04,5.6,792.1,M,34.5,M,,*50
$GPRMC,101036,A,4146.5524,N,08809.0948,W,74.9,172.5,280714,5,E,A*29
$GPGSV,8,1,32,01,21,115,-10,02,21,218,-10,03,85,203,49,04,86,270,50*74
$GPGSV,8,2,32,05,87,212,50,06,27,058,-3,07,16,300,-14,08,86,008,50*4C
$GPGSV,8,3,32,09,89,054,51,10,51,048,21,11,74,201,42,12,80,101,46*7B
$GPGSV,8,4,32,13,24,060,-6,14,67,158,36,15,84,229,49,16,21,052,-10*43
$GPGSV,8,5,32,17,83,203,48,18,16,034,-14,19,87,226,50,20,85,120,49*51
$GPGSV,8,6,32,21,90,189,52,22,06,320,-25,23,71,094,40,24,56,165,26*5B
$GPGSV,8,7,32,25,83,345,48,26,90,129,52,27,01,331,00,28,83,113,48*7E
$GPGSV,8,8,32,29,88,284,51,30,09,098,-22,31,83,246,48,32,18,239,-12*74
$GPGGA,101038,4146.5118,N,08809.0847,W,1,04,5.6,724.4,M,34.5,M,,*53
$GPRMC,101038,A,4146.5118,N,08809.0847,W,74.4,169.5,280714,5,E,A*25
$GPGSV,8,1,32,01,21,115,-10,02,21,218,-10,03,85,203,49,04,86,270,50*74
$GPGSV,8,2,32,05,87,212,50,06,27,058,-4,07,16,300,-15,08,86,008,50*4A
$GPGSV,8,3,32,09,89,054,51,10,51,048,21,11,74,201,42,12,80,101,46*7B
$GPGSV,8,4,32,13,24,060,-7,14,67,158,36,15,84,229,49,16,21,052,-10*42
$GPGSV,8,5,32,17,83,203,48,18,16,034,-15,19,87,226,50,20,85,120,49*50
$GPGSV,8,6,32,21,90,189,52,22,06,320,-24,23,72,094,40,24,56,165,27*58
$GPGSV,8,7,32,25,83,345,48,26,90,129,52,27,01,331,00,28,83,113,48*7E
$GPGSV,8,8,32,29,88,284,51,30,09,098,-21,31,83,246,48,32,18,239,-12*77
$GPGGA,101040,4146.4720,N,08809.0718,W,1,04,5.6,658.0,M,34.5,M,,*5B
$GPRMC,101040,A,4146.4720,N,08809.0718,W,73.8,166.4,280714,5,E,A*26
$GPGSV,8,1,32,01,20,116,-10,02,20,219,-10,03,85,204,49,04,86,271,50*70
$GPGSV,8,2,32,05,87,213,50,06,26,059,-4,07,16,301,-15,08,86,009,50*4B
$GPGSV,8,3,32,09,89,055,51,10,50,049,21,11,75,202,42,12,80,102,46*7B
$GPGSV,8,4,32,13,23,061,-7,14,67,159,36,15,84,230,49,16,20,053,-10*4D
$GPGSV,8,5,32,17,83,204,48,18,16,035,-15,19,87,227,51,20,86,121,50*5C
$GPGSV,8,6,32,21,90,190,52,22,06,321,-24,23,72,095,40,24,57,166,27*52
$GPGSV,8,7,32,25,83,346,48,26,90,130,52,27,02,332,00,28,83,114,48*72
$GPGSV,8,8,32,29,88,285,51,30,09,099,-21,31,83,247,48,32,19,240,-12*79
$GPGGA,101042,4146.4331,N,08809.0561,W,1,04,5.6,593.3,M,34.5,M,,*56
$GPRMC,101042,A,4146.4331,N,08809.0561,W,73.0,163.2,280714,5,E,A*27
$GPGSV,8,1,32,01,20,116,-10,02,20,219,-10,03,84,204,49,04,85,271,49*7A
$GPGSV,8,2,32,05,87,213,50,06,26,059,-4,07,15,301,-15,08,86,009,50*48
$GPGSV,8,3,32,09,89,055,51,10,50,049,21,11,75,202,42,12,80,102,46*7B
$GPGSV,8,4,32,13,23,061,-7,14,67,159,36,15,84,230,48,16,20,053,-10*4C
$GPGSV,8,5,32,17,83,204,48,18,15,035,-15,19,87,227,51,20,86,121,50*5F
$GPGSV,8,6,32,21,89,190,52,22,07,321,-24,23,72,095,40,24,57,166,27*5B
$GPGSV,8,7,32,25,84,346,48,26,90,130,52,27,02,332,00,28,83,114,48*75
$GPGSV,8,8,32,29,88,285,51,30,10,099,-21,31,83,247,48,32,19,240,-11*72
$GPGGA,101044,4146.3955,N,08809.0377,W,1,04,5.6,530.5,M,34.5,M,,*51
$GPRMC,101044,A,4146.3955,N,08809.0377,W,72.1,160.0,280714,5,E,A*2E
$GPGSV,8,1,32,01,20,116,-11,02,20,219,-11,03,84,204,49,04,85,271,49*7A
$GPGSV,8,2,32,05,87,213,50,06,26,059,-4,07,15,301,-16,08,86,009,50*4B
$GPGSV,8,3,32,09,89,055,51,10,50,049,20,11,75,202,42,12,80,102,46*7A
$GPGSV,8,4,32,13,23,061,-8,14,66,159,36,15,84,230,48,16,20,053,-11*43
$GPGSV,8,5,32,17,83,204,48,18,15,035,-16,19,87,227,51,20,86,121,50*5C
$GPGSV,8,6,32,21,89,190,52,22,07,321,-24,23,72,095,40,24,57,166,27*5B
$GPGSV,8,7,32,25,84,346,48,26,90,130,52,27,02,332,00,28,83,114,48*75
$GPGSV,8,8,32,29,88,285,51,30,10,099,-20,31,83,247,48,32,19,240,-11*73
$GPGGA,101046,4146.3592,N,08809.0168,W,1,04,5.6,470.1,M,34.5,M,,*59
$GPRMC,101046,A,4146.3592,N,08809.0168,W,71.1,156.7,280714,5,E,A*26
$GPGSV,8,1,32,01,19,116,-11,02,19,219,-11,03,84,204,49,04,85,271,49*7A
$GPGSV,8,2,32,05,87,213,50,06,25,059,-5,07,15,301,-16,08,86,009,50*49
$GPGSV,8,3,32,09,89,055,51,10,50,049,20,11,75,202,43,12,80,102,46*7B
$GPGSV,8,4,32,13,22,061,-8,14,66,159,35,15,84,230,48,16,19,053,-11*4B
$GPGSV,8,5,32,17,83,204,48,18,15,035,-16,19,88,227,51,20,86,121,50*53
$GPGSV,8,6,32,21,89,190,52,22,07,321,-23,23,72,095,40,24,57,166,28*53
$GPGSV,8,7,32,25,84,346,48,26,90,130,52,27,03,332,00,28,83,114,48*74
$GPGSV,8,8,32,29,89,285,51,30,10,099,-20,31,83,247,48,32,20,240,-11*78
$GPGGA,101048,4146.3245,N,08808.9934,W,1,04,5.6,412.2,M,34.5,M,,*54
$GPRMC,101048,A,4146.3245,N,08808.9934,W,70.0,153.3,280714,5,E,A*2D
$GPGSV,8,1,32,01,19,116,-11,02,19,219,-11,03,84,204,49,04,85,271,49*7A
$GPGSV,8,2,32,05,87,213,50,06,25,059,-5,07,14,301,-16,08,86,009,50*48
$GPGSV,8,3,32,09,89,055,51,10,49,049,20,11,75,202,43,12,80,102,46*73
$GPGSV,8,4,32,13,22,061,-8,14,66,159,35,15,84,230,48,16,19,053,-11*4B
$GPGSV,8,5,32,17,83,204,48,18,14,035,-16,19,88,227,51,20,86,121,50*52
$GPGSV,8,6,32,21,89,190,52,22,08,321,-23,23,73,095,41,24,58,166,28*53
$GPGSV,8,7,32,25,84,346,48,26,90,130,52,27,03,332,00,28,83,114,48*74
$GPGSV,8,8,32,29,89,285,51,30,11,099,-20,31,83,247,48,32,20,240,-10*78
$GPGGA,101050,4146.2915,N,08808.9676,W,1,04,5.6,357.2,M,34.5,M,,*5D
$GPRMC,101050,A,4146.2915,N,08808.9676,W,68.8,149.8,280714,5,E,A*23
$GPGSV,8,1,32,01,19,117,-12,02,19,220,-12,03,84,205,49,04,85,272,49*73
$GPGSV,8,2,32,05,87,214,51,06,25,060,-5,07,14,302,-16,08,86,010,50*4F
$GPGSV,8,3,32,09,89,056,51,10,49,050,20,11,75,203,43,12,79,103,46*7E
$GPGSV,8,4,32,13,22,062,-9,14,66,160,35,15,83,231,48,16,19,054,-12*41
$GPGSV,8,5,32,17,83,205,48,18,14,036,-16,19,88,228,51,20,86,122,50*5C
$GPGSV,8,6,32,21,89,191,52,22,08,322,-23,23,73,096,41,24,58,167,28*53
$GPGSV,8,7,32,25,84,347,49,26,90,131,52,27,03,333,00,28,83,115,48*75
$GPGSV,8,8,32,29,89,286,51,30,11,100,-20,31,83,248,48,32,20,241,-10*74
$GPGGA,101052,4146.2604,N,08808.9395,W,1,04,5.6,305.3,M,34.5,M,,*5E
$GPRMC,101052,A,4146.2604,N,08808.9395,W,67.5,146.1,280714,5,E,A*22
$GPGSV,8,1,32,01,18,117,-12,02,18,220,-12,03,84,205,48,04,85,272,49*72
$GPGSV,8,2,32,05,87,214,51,06,25,060,-6,07,14,302,-17,08,85,010,49*46
$GPGSV,8,3,32,09,89,056,52,10,49,050,19,11,76,203,43,12,79,103,45*77
$GPGSV,8,4,32,13,21,062,-9,14,66,160,35,15,83,231,48,16,18,054,-12*43
$GPGSV,8,5,32,17,84,205,48,18,14,036,-17,19,88,228,51,20,86,122,50*5A
$GPGSV,8,6,32,21,89,191,52,22,08,322,-22,23,73,096,41,24,58,167,28*52
$GPGSV,8,7,32,25,84,347,49,26,90,131,52,27,03,333,00,28,84,115,48*72
$GPGSV,8,8,32,29,89,286,51,30,11,100,-19,31,84,248,48,32,21,241,-10*78
$GPGGA,101054,4146.2313,N,08808.9094,W,1,04,5.6,256.9,M,34.5,M,,*54
$GPRMC,101054,A,4146.2313,N,08808.9094,W,66.2,142.3,280714,5,E,A*25
$GPGSV,8,1,32,01,18,117,-12,02,18,220,-12,03,84,205,48,04,85,272,49*72
$GPGSV,8,2,32,05,87,214,51,06,24,060,-6,07,13,302,-17,08,85,010,49*40
$GPGSV,8,3,32,09,89,056,52,10,48,050,19,11,76,203,43,12,79,103,45*76
$GPGSV,8,4,32,13,21,062,-9,14,65,160,35,15,83,231,48,16,18,054,-12*40
$GPGSV,8,5,32,17,84,205,48,18,13,036,-17,19,88,228,51,20,86,122,50*5D
$GPGSV,8,6,32,21,89,191,52,22,08,322,-22,23,73,096,41,24,58,167,28*52
$GPGSV,8,7,32,25,84,347,49,26,90,131,52,27,04,333,00,28,84,115,48*75
$GPGSV,8,8,32,29,89,286,51,30,12,100,-19,31,84,248,48,32,21,241,-10*7B
$GPGGA,101056,4146.2044,N,08808.8773,W,1,04,5.6,212.0,M,34.5,M,,*51
$GPRMC,101056,A,4146.2044,N,08808.8773,W,64.8,138.4,280714,5,E,A*2B
$GPGSV,8,1,32,01,18,117,-13,02,18,220,-13,03,84,205,48,04,85,272,49*72
$GPGSV,8,2,32,05,88,214,51,06,24,060,-6,07,13,302,-17,08,85,010,49*4F
$GPGSV,8,3,32,09,89,056,52,10,48,050,19,11,76,203,43,12,79,103,45*76
$GPGSV,8,4,32,13,21,062,-10,14,65,160,35,15,83,231,48,16,18,054,-13*79
$GPGSV,8,5,32,17,84,205,48,18,13,036,-17,19,88,228,51,20,86,122,50*5D
$GPGSV,8,6,32,21,89,191,52,22,09,322,-22,23,73,096,41,24,59,167,29*53
$GPGSV,8,7,32,25,84,347,49,26,90,131,52,27,04,333,00,28,84,115,48*75
$GPGSV,8,8,32,29,89,286,51,30,12,100,-19,31,84,248,48,32,21,241,-9*43
$GPGGA,101058,4146.1798,N,08808.8435,W,1,04,5.6,171.0,M,34.5,M,,*5D
$GPRMC,101058,A,4146.1798,N,08808.8435,W,63.5,134.2,280714,5,E,A*21
$GPGSV,8,1,32,01,17,117,-13,02,17,220,-13,03,84,205,48,04,85,272,49*72
$GPGSV,8,2,32,05,88,214,51,06,24,060,-7,07,13,302,-18,08,85,010,49*41
$GPGSV,8,3,32,09,89,056,52,10,48,050,19,11,76,203,43,12,79,103,45*76
$GPGSV,8,4,32,13,21,062,-10,14,65,160,34,15,83,231,48,16,17,054,-13*77
$GPGSV,8,5,32,17,84,205,48,18,13,036,-18,19,88,228,51,20,86,122,50*52
$GPGSV,8,6,32,21,89,191,52,22,09,322,-21,23,74,096,41,24,59,167,29*57
$GPGSV,8,7,32,25,84,347,49,26,90,131,52,27,04,333,00,28,84,115,48*75
$GPGSV,8,8,32,29,89,286,51,30,12,100,-18,31,84,248,48,32,21,241,-9*42
$GPGGA,101100,4146.1576,N,08808.8079,W,1,04,5.6,134.0,M,34.5,M,,*5E
$GPRMC,101100,A,4146.1576,N,08808.8079,W,62.2,130.0,280714,5,E,A*23
$GPGSV,8,1,32,01,17,118,-13,02,17,221,-13,03,83,206,48,04,85,273,49*79
$GPGSV,8,2,32,05,88,215,51,06,23,061,-7,07,13,303,-18,08,85,011,49*46
$GPGSV,8,3,32,09,89,057,52,10,48,051,18,11,76,204,43,12,79,104,45*77
$GPGSV,8,4,32,13,20,063,-10,14,65,161,34,15,83,232,48,16,17,055,-13*74
$GPGSV,8,5,32,17,84,206,49,18,13,037,-18,19,88,229,51,20,87,123,50*50
$GPGSV,8,6,32,21,89,192,51,22,09,323,-21,23,74,097,41,24,59,168,29*58
$GPGSV,8,7,32,25,85,348,49,26,90,132,52,27,05,334,00,28,84,116,49*7C
$GPGSV,8,8,32,29,89,287,51,30,13,101,-18,31,84,249,49,32,22,242,-9*43
$GPGGA,101102,4146.1379,N,08808.7710,W,1,04,5.6,101.2,M,34.5,M,,*56
$GPRMC,101102,A,4146.1379,N,08808.7710,W,61.0,125.5,280714,5,E,A*2F
$GPGSV,8,1,32,01,17,118,-14,02,17,221,-14,03,83,206,48,04,84,273,49*78
$GPGSV,8,2,32,05,88,215,51,06,23,061,-7,07,12,303,-18,08,85,011,49*47
$GPGSV,8,3,32,09,89,057,52,10,47,051,18,11,76,204,44,12,79,104,45*7F
$GPGSV,8,4,32,13,20,063,-10,14,65,161,34,15,83,232,48,16,17,055,-14*73
$GPGSV,8,5,32,17,84,206,49,18,12,037,-18,19,88,229,51,20,87,123,50*51
$GPGSV,8,6,32,21,89,192,51,22,10,323,-21,23,74,097,42,24,59,168,29*53
$GPGSV,8,7,32,25,85,348,49,26,89,132,52,27,05,334,-25,28,84,116,49*5E
$GPGSV,8,8,32,29,89,287,51,30,13,101,-18,31,84,249,49,32,22,242,-8*42
$GPGGA,101104,4146.1209,N,08808.7327,W,1,04,5.6,72.8,M,34.5,M,,*69
$GPRMC,101104,A,4146.1209,N,08808.7327,W,59.8,120.8,280714,5,E,A*24
$GPGSV,8,1,32,01,17,118,-14,02,17,221,-14,03,83,206,48,04,84,273,49*78
$GPGSV,8,2,32,05,88,215,51,06,23,061,-8,07,12,303,-19,08,85,011,49*49
$GPGSV,8,3,32,09,89,057,52,10,47,051,18,11,77,204,44,12,78,104,45*7F
$GPGSV,8,4,32,13,20,063,-11,14,64,161,34,15,83,232,48,16,17,055,-14*73
$GPGSV,8,5,32,17,84,206,49,18,12,037,-19,19,88,229,51,20,87,123,50*50
$GPGSV,8,6,32,21,89,192,51,22,10,323,-20,23,74,097,42,24,60,168,30*50
$GPGSV,8,7,32,25,85,348,49,26,89,132,52,27,05,334,-25,28,84,116,49*5E
$GPGSV,8,8,32,29,89,287,51,30,13,101,-17,31,84,249,49,32,22,242,-8*4D
$GPGGA,101106,4146.1065,N,08808.6934,W,1,04,5.6,48.9,M,34.5,M,,*62
$GPRMC,101106,A,4146.1065,N,08808.6934,W,58.8,116.0,280714,5,E,A*2B
$GPGSV,8,1,32,01,16,118,-14,02,16,221,-14,03,83,206,48,04,84,273,49*78
$GPGSV,8,2,32,05,88,215,51,06,22,061,-8,07,12,303,-19,08,85,011,49*48
$GPGSV,8,3,32,09,89,057,52,10,47,051,17,11,77,204,44,12,78,104,45*70
$GPGSV,8,4,32,13,19,063,-11,14,64,161,34,15,82,232,48,16,16,055,-14*79
$GPGSV,8,5,32,17,84,206,49,18,12,037,-19,19,88,229,51,20,87,123,50*50
$GPGSV,8,6,32,21,89,192,51,22,10,323,-20,23,74,097,42,24,60,168,30*50
$GPGSV,8,7,32,25,85,348,49,26,89,132,52,27,06,334,-25,28,84,116,49*5D
$GPGSV,8,8,32,29,89,287,51,30,13,101,-17,31,84,249,49,32,23,242,-8*4C
$GPGGA,101108,4146.0950,N,08808.6531,W,1,04,5.6,29.7,M,34.5,M,,*62
$GPRMC,101108,A,4146.0950,N,08808.6531,W,57.9,111.0,280714,5,E,A*2B
$GPGSV,8,1,32,01,16,118,-15,02,16,221,-15,03,83,206,48,04,84,273,49*78
$GPGSV,8,2,32,05,88,215,51,06,22,061,-8,07,11,303,-19,08,85,011,49*4B
$GPGSV,8,3,32,09,89,057,52,10,47,051,17,11,77,204,44,12,78,104,45*70
$GPGSV,8,4,32,13,19,063,-11,14,64,161,33,15,82,232,48,16,16,055,-15*7F
$GPGSV,8,5,32,17,84,206,49,18,11,037,-19,19,88,229,51,20,87,123,50*53
$GPGSV,8,6,32,21,89,192,51,22,11,323,-20,23,74,097,42,24,60,168,30*51
$GPGSV,8,7,32,25,85,348,49,26,89,132,52,27,06,334,-24,28,84,116,49*5C
$GPGSV,8,8,32,29,89,287,51,30,14,101,-17,31,84,249,49,32,23,242,-7*44
$GPGGA,101110,4146.0863,N,08808.6121,W,1,04,5.6,15.2,M,34.5,M,,*65
$GPRMC,101110,A,4146.0863,N,08808.6121,W,57.2,105.9,280714,5,E,A*21
$GPGSV,8,1,32,01,16,119,-15,02,16,222,-15,03,83,207,48,04,84,274,49*7C
$GPGSV,8,2,32,05,88,216,51,06,22,062,-9,07,11,304,-20,08,85,012,49*44
$GPGSV,8,3,32,09,90,058,52,10,46,052,17,11,77,205,44,12,78,105,45*75
$GPGSV,8,4,32,13,19,064,-12,14,64,162,33,15,82,233,47,16,16,056,-15*75
$GPGSV,8,5,32,17,85,207,49,18,11,038,-20,19,88,230,51,20,87,124,50*59
$GPGSV,8,6,32,21,89,193,51,22,11,324,-20,23,75,098,42,24,60,169,30*58
$GPGSV,8,7,32,25,85,349,49,26,89,133,52,27,06,335,-24,28,85,117,49*5D
$GPGSV,8,8,32,29,89,288,51,30,14,102,-16,31,85,250,49,32,23,243,-7*41
$GPGGA,101112,4146.0805,N,08808.5707,W,1,04,5.6,5.5,M,34.5,M,,*50
$GPRMC,101112,A,4146.0805,N,08808.5707,W,56.7,100.7,280714,5,E,A*2D
$GPGSV,8,1,32,01,15,119,-15,02,15,222,-15,03,83,207,48,04,84,274,48*7D
$GPGSV,8,2,32,05,88,216,51,06,21,062,-9,07,11,304,-20,08,84,012,49*46
$GPGSV,8,3,32,09,90,058,52,10,46,052,17,11,77,205,44,12,78,105,44*74
$GPGSV,8,4,32,13,18,064,-12,14,63,162,33,15,82,233,47,16,15,056,-15*70
$GPGSV,8,5,32,17,85,207,49,18,11,038,-20,19,88,230,51,20,87,124,50*59
$GPGSV,8,6,32,21,89,193,51,22,11,324,-19,23,75,098,42,24,60,169,30*52
$GPGSV,8,7,32,25,85,349,49,26,89,133,52,27,07,335,-24,28,85,117,49*5C
$GPGSV,8,8,32,29,89,288,52,30,14,102,-16,31,85,250,49,32,24,243,-7*45
$GPGGA,101114,4146.0775,N,08808.5289,W,1,04,5.6,0.6,M,34.5,M,,*5B
$GPRMC,101114,A,4146.0775,N,08808.5289,W,56.3,95.4,280714,5,E,A*1A
$GPGSV,8,1,32,01,15,119,-16,02,15,222,-16,03,83,207,48,04,84,274,48*7D
$GPGSV,8,2,32,05,88,216,51,06,21,062,-9,07,10,304,-20,08,84,012,49*47
$GPGSV,8,3,32,09,90,058,52,10,46,052,16,11,77,205,44,12,78,105,44*75
$GPGSV,8,4,32,13,18,064,-12,14,63,162,33,15,82,233,47,16,15,056,-16*73
$GPGSV,8,5,32,17,85,207,49,18,10,038,-20,19,88,230,51,20,87,124,50*58
$GPGSV,8,6,32,21,89,193,51,22,12,324,-19,23,75,098,42,24,61,169,31*51
$GPGSV,8,7,32,25,85,349,49,26,89,133,52,27,07,335,-24,28,85,117,49*5C
$GPGSV,8,8,32,29,89,288,52,30,15,102,-16,31,85,250,49,32,24,243,-6*45
$GPGGA,101116,4146.0775,N,08808.4870,W,1,04,5.6,0.6,M,34.5,M,,*54
$GPRMC,101116,A,4146.0775,N,08808.4870,W,56.2,90.0,280714,5,E,A*15
$GPGSV,8,1,32,01,15,119,-16,02,15,222,-16,03,82,207,48,04,84,274,48*7C
$GPGSV,8,2,32,05,88,216,51,06,21,062,-10,07,10,304,-20,08,84,012,49*7F
$GPGSV,8,3,32,09,90,058,52,10,46,052,16,11,78,205,44,12,77,105,44*75
$GPGSV,8,4,32,13,18,064,-13,14,63,162,33,15,82,233,47,16,15,056,-16*72
$GPGSV,8,5,32,17,85,207,49,18,10,038,-20,19,89,230,51,20,87,124,50*59
$GPGSV,8,6,32,21,89,193,51,22,12,324,-19,23,75,098,43,24,61,169,31*50
$GPGSV,8,7,32,25,85,349,49,26,89,133,52,27,07,335,-23,28,85,117,49*5B
$GPGSV,8,8,32,29,89,288,52,30,15,102,-16,31,85,250,49,32,24,243,-6*45
$GPGGA,101118,4146.0805,N,08808.4452,W,1,04,5.6,5.5,M,34.5,M,,*58
$GPRMC,101118,A,4146.0805,N,08808.4452,W,56.3,84.6,280714,5,E,A*1D
$GPGSV,8,1,32,01,14,119,-16,02,14,222,-16,03,82,207,48,04,84,274,48*7C
$GPGSV,8,2,32,05,88,216,51,06,21,062,-10,07,10,304,-21,08,84,012,49*7E
$GPGSV,8,3,32,09,90,058,52,10,45,052,16,11,78,205,44,12,77,105,44*76
$GPGSV,8,4,32,13,17,064,-13,14,63,162,32,15,82,233,47,16,14,056,-16*7D
$GPGSV,8,5,32,17,85,207,49,18,10,038,-21,19,89,230,51,20,87,124,50*58
$GPGSV,8,6,32,21,89,193,51,22,12,324,-18,23,75,098,43,24,61,169,31*51
$GPGSV,8,7,32,25,85,349,49,26,89,133,52,27,08,335,-23,28,85,117,49*54
$GPGSV,8,8,32,29,89,288,52,30,15,102,-15,31,85,250,49,32,25,243,-6*47
$GPGGA,101120,4146.0863,N,08808.4038,W,1,04,5.6,15.2,M,34.5,M,,*6D
$GPRMC,101120,A,4146.0863,N,08808.4038,W,56.7,79.3,280714,5,E,A*1D
$GPGSV,8,1,32,01,14,120,-16,02,14,223,-16,03,82,208,47,04,83,275,48*71
$GPGSV,8,2,32,05,88,217,51,06,20,063,-10,07,09,305,-21,08,84,013,49*77
$GPGSV,8,3,32,09,90,059,52,10,45,053,16,11,78,206,45,12,77,106,44*77
$GPGSV,8,4,32,13,17,065,-13,14,63,163,32,15,82,234,47,16,14,057,-16*7B
$GPGSV,8,5,32,17,85,208,49,18,09,039,-21,19,89,231,51,20,87,125,51*5F
$GPGSV,8,6,32,21,89,194,51,22,13,325,-18,23,75,099,43,24,61,170,31*5F
$GPGSV,8,7,32,25,86,350,50,26,89,134,51,27,08,336,-23,28,85,118,49*5F
$GPGSV,8,8,32,29,89,289,52,30,16,103,-15,31,85,251,49,32,25,244,-5*41
$GPGGA,101122,4146.0950,N,08808.3628,W,1,04,5.6,29.7,M,34.5,M,,*64
$GPRMC,101122,A,4146.0950,N,08808.3628,W,57.2,74.1,280714,5,E,A*15
$GPGSV,8,1,32,01,14,120,-17,02,14,223,-17,03,82,208,47,04,83,275,48*71
$GPGSV,8,2,32,05,88,217,51,06,20,063,-10,07,09,305,-21,08,84,013,48*76
$GPGSV,8,3,32,09,90,059,52,10,45,053,15,11,78,206,45,12,77,106,44*74
$GPGSV,8,4,32,13,17,065,-14,14,62,163,32,15,81,234,47,16,14,057,-17*7F
$GPGSV,8,5,32,17,85,208,49,18,09,039,-21,19,89,231,51,20,87,125,51*5F
$GPGSV,8,6,32,21,89,194,51,22,13,325,-18,23,76,099,43,24,62,170,31*5F
$GPGSV,8,7,32,25,86,350,50,26,89,134,51,27,08,336,-22,28,85,118,49*5E
$GPGSV,8,8,32,29,89,289,52,30,16,103,-15,31,85,251,49,32,25,244,-5*41
$GPGGA,101124,4146.1065,N,08808.3225,W,1,04,5.6,48.9,M,34.5,M,,*6C
$GPRMC,101124,A,4146.1065,N,08808.3225,W,57.9,69.0,280714,5,E,A*12
$GPGSV,8,1,32,01,13,120,-17,02,13,223,-17,03,82,208,47,04,83,275,48*71
$GPGSV,8,2,32,05,88,217,51,06,20,063,-11,07,09,305,-22,08,84,013,48*74
$GPGSV,8,3,32,09,90,059,52,10,44,053,15,11,78,206,45,12,77,106,44*75
$GPGSV,8,4,32,13,17,065,-14,14,62,163,32,15,81,234,47,16,13,057,-17*78
$GPGSV,8,5,32,17,85,208,49,18,09,039,-22,19,89,231,51,20,87,125,51*5C
$GPGSV,8,6,32,21,89,194,51,22,13,325,-17,23,76,099,43,24,62,170,32*53
$GPGSV,8,7,32,25,86,350,50,26,89,134,51,27,08,336,-22,28,85,118,49*5E
$GPGSV,8,8,32,29,89,289,52,30,16,103,-14,31,85,251,49,32,25,244,-5*40
$GPGGA,101126,4146.1209,N,08808.2832,W,1,04,5.6,72.8,M,34.5,M,,*63
$GPRMC,101126,A,4146.1209,N,08808.2832,W,58.8,64.0,280714,5,E,A*16
$GPGSV,8,1,32,01,13,120,-17,02,13,223,-17,03,82,208,47,04,83,275,48*71
$GPGSV,8,2,32,05,89,217,51,06,19,063,-11,07,08,305,-22,08,84,013,48*7E
$GPGSV,8,3,32,09,90,059,52,10,44,053,15,11,78,206,45,12,77,106,44*75
$GPGSV,8,4,32,13,16,065,-14,14,62,163,32,15,81,234,47,16,13,057,-17*79
$GPGSV,8,5,32,17,85,208,49,18,08,039,-22,19,89,231,51,20,88,125,51*52
$GPGSV,8,6,32,21,88,194,51,22,13,325,-17,23,76,099,43,24,62,170,32*52
$GPGSV,8,7,32,25,86,350,50,26,89,134,51,27,09,336,-22,28,85,118,49*5F
$GPGSV,8,8,32,29,89,289,52,30,17,103,-14,31,85,251,49,32,26,244,-4*43
$GPGGA,101128,4146.1379,N,08808.2449,W,1,04,5.6,101.2,M,34.5,M,,*54
$GPRMC,101128,A,4146.1379,N,08808.2449,W,59.8,59.2,280714,5,E,A*13
$GPGSV,8,1,32,01,13,120,-18,02,13,223,-18,03,82,208,47,04,83,275,48*71
$GPGSV,8,2,32,05,89,217,51,06,19,063,-11,07,08,305,-22,08,84,013,48*7E
$GPGSV,8,3,32,09,90,059,52,10,44,053,14,11,79,206,45,12,76,106,44*74
$GPGSV,8,4,32,13,16,065,-15,14,62,163,31,15,81,234,47,16,13,057,-18*74
$GPGSV,8,5,32,17,85,208,49,18,08,039,-22,19,89,231,51,20,88,125,51*52
$GPGSV,8,6,32,21,88,194,51,22,14,325,-17,23,76,099,43,24,62,170,32*55
$GPGSV,8,7,32,25,86,350,50,26,89,134,51,27,09,336,-21,28,85,118,49*5C
$GPGSV,8,8,32,29,89,289,52,30,17,103,-14,31,85,251,49,32,26,244,-4*43
$GPGGA,101130,4146.1576,N,08808.2079,W,1,04,5.6,134.0,M,34.5,M,,*57
$GPRMC,101130,A,4146.1576,N,08808.2079,W,61.0,54.5,280714,5,E,A*1D
$GPGSV,8,1,32,01,13,121,-18,02,13,224,-18,03,82,209,47,04,83,276,48*75
$GPGSV,8,2,32,05,89,218,51,06,19,064,-12,07,08,306,-23,08,83,014,48*77
$GPGSV,8,3,32,09,90,060,52,10,44,054,14,11,79,207,45,12,76,107,43*7E
$GPGSV,8,4,32,13,16,066,-15,14,61,164,31,15,81,235,47,16,13,058,-18*7D
$GPGSV,8,5,32,17,86,209,50,18,08,040,-23,19,89,232,51,20,88,126,51*57
$GPGSV,8,6,32,21,88,195,51,22,14,326,-16,23,76,100,43,24,63,171,32*57
$GPGSV,8,7,32,25,86,351,50,26,89,135,51,27,09,337,-21,28,86,119,50*57
$GPGSV,8,8,32,29,90,290,52,30,17,104,-13,31,86,252,50,32,26,245,-4*4A
$GPGGA,101132,4146.1798,N,08808.1724,W,1,04,5.6,171.0,M,34.5,M,,*5A
$GPRMC,101132,A,4146.1798,N,08808.1724,W,62.2,50.0,280714,5,E,A*11
$GPGSV,8,1,32,01,12,121,-18,02,12,224,-18,03,81,209,47,04,83,276,48*76
$GPGSV,8,2,32,05,89,218,51,06,18,064,-12,07,08,306,-23,08,83,014,48*76
$GPGSV,8,3,32,09,90,060,52,10,43,054,14,11,79,207,45,12,76,107,43*79
$GPGSV,8,4,32,13,15,066,-15,14,61,164,31,15,81,235,46,16,12,058,-18*7E
$GPGSV,8,5,32,17,86,209,50,18,08,040,-23,19,89,232,51,20,88,126,51*57
$GPGSV,8,6,32,21,88,195,51,22,14,326,-16,23,76,100,44,24,63,171,32*50
$GPGSV,8,7,32,25,86,351,50,26,89,135,51,27,10,337,-21,28,86,119,50*5F
$GPGSV,8,8,32,29,90,290,52,30,17,104,-13,31,86,252,50,32,27,245,-4*4B
$GPGGA,101134,4146.2044,N,08808.1385,W,1,04,5.6,212.0,M,34.5,M,,*50
$GPRMC,101134,A,4146.2044,N,08808.1385,W,63.5,45.8,280714,5,E,A*17
$GPGSV,8,1,32,01,12,121,-19,02,12,224,-19,03,81,209,47,04,83,276,48*76
$GPGSV,8,2,32,05,89,218,51,06,18,064,-12,07,07,306,-23,08,83,014,48*79
$GPGSV,8,3,32,09,90,060,52,10,43,054,14,11,79,207,45,12,76,107,43*79
$GPGSV,8,4,32,13,15,066,-16,14,61,164,31,15,81,235,46,16,12,058,-19*7C
$GPGSV,8,5,32,17,86,209,50,18,07,040,-23,19,89,232,51,20,88,126,51*58
$GPGSV,8,6,32,21,88,195,51,22,15,326,-16,23,77,100,44,24,63,171,33*51
$GPGSV,8,7,32,25,86,351,50,26,89,135,51,27,10,337,-20,28,86,119,50*5E
$GPGSV,8,8,32,29,90,290,52,30,18,104,-13,31,86,252,50,32,27,245,-3*43
$GPGGA,101136,4146.2313,N,08808.1065,W,1,04,5.6,256.9,M,34.5,M,,*57
$GPRMC,101136,A,4146.2313,N,08808.1065,W,64.8,41.6,280714,5,E,A*19
$GPGSV,8,1,32,01,12,121,-19,02,12,224,-19,03,81,209,47,04,82,276,48*77
$GPGSV,8,2,32,05,89,218,51,06,18,064,-13,07,07,306,-24,08,83,014,48*7F
$GPGSV,8,3,32,09,90,060,52,10,43,054,13,11,79,207,45,12,76,107,43*7E
$GPGSV,8,4,32,13,15,066,-16,14,61,164,31,15,80,235,46,16,12,058,-19*7D
$GPGSV,8,5,32,17,86,209,50,18,07,040,-24,19,89,232,51,20,88,126,51*5F
$GPGSV,8,6,32,21,88,195,51,22,15,326,-16,23,77,100,44,24,63,171,33*51
$GPGSV,8,7,32,25,86,351,50,26,89,135,51,27,10,337,-20,28,86,119,50*5E
$GPGSV,8,8,32,29,90,290,52,30,18,104,-12,31,86,252,50,32,27,245,-3*42
$GPGGA,101138,4146.2604,N,08808.0763,W,1,04,5.6,305.3,M,34.5,M,,*57
$GPRMC,101138,A,4146.2604,N,08808.0763,W,66.2,37.7,280714,5,E,A*1C
$GPGSV,8,1,32,01,11,121,-19,02,11,224,-19,03,81,209,47,04,82,276,48*77
$GPGSV,8,2,32,05,89,218,51,06,17,064,-13,07,07,306,-24,08,83,014,48*70
$GPGSV,8,3,32,09,90,060,52,10,43,054,13,11,79,207,45,12,76,107,43*7E
$GPGSV,8,4,32,13,14,066,-16,14,60,164,30,15,80,235,46,16,11,058,-19*7F
$GPGSV,8,5,32,17,86,209,50,18,07,040,-24,19,89,232,51,20,88,126,51*5F
$GPGSV,8,6,32,21,88,195,51,22,15,326,-15,23,77,100,44,24,63,171,33*52
$GPGSV,8,7,32,25,86,351,50,26,89,135,51,27,11,337,-20,28,86,119,50*5F
$GPGSV,8,8,32,29,90,290,52,30,18,104,-12,31,86,252,50,32,28,245,-3*4D
$GPGGA,101140,4146.2915,N,08808.0483,W,1,04,5.6,357.2,M,34.5,M,,*5C
$GPRMC,101140,A,4146.2915,N,08808.0483,W,67.5,33.9,280714,5,E,A*1D
$GPGSV,8,1,32,01,11,122,-20,02,11,225,-20,03,81,210,47,04,82,277,47*73
$GPGSV,8,2,32,05,89,219,51,06,17,065,-13,07,06,307,-24,08,83,015,48*71
$GPGSV,8,3,32,09,90,061,52,10,42,055,13,11,79,208,46,12,75,108,43*7F
$GPGSV,8,4,32,13,14,067,-16,14,60,165,30,15,80,236,46,16,11,059,-20*77
$GPGSV,8,5,32,17,86,210,50,18,06,041,-24,19,89,233,51,20,88,127,51*57
$GPGSV,8,6,32,21,88,196,51,22,16,327,-15,23,77,101,44,24,64,172,33*56
$GPGSV,8,7,32,25,87,352,50,26,89,136,51,27,11,338,-20,28,86,120,50*5B
$GPGSV,8,8,32,29,90,291,52,30,19,105,-12,31,86,253,50,32,28,246,-2*4F
