$GPRMC,112526.000,A,4146.981,N,08808.672,W,0.00,0.00,200810,,*15
$GPGGA,112526.000,4146.981,N,08808.672,W,1,00,0.0,0.000,M,0.0,M,,*71
$GPVTG,0.000,T,0,M,0.000,N,0.000,K*50
$GPGSA,A,3,,,,,,,,,,,,,0.0,0.0,0.0*32
$GPRMC,112526.000,A,4146.981,N,08808.673,W,0.00,273.19,200810,,*1A
$GPGGA,112526.000,4146.981,N,08808.673,W,1,00,0.0,0.000,M,0.0,M,,*70
$GPVTG,273.188,T,0,M,0.000,N,0.000,K*57
$GPGSA,A,3,,,,,,,,,,,,,0.0,0.0,0.0*32
$GPRMC,112526.000,A,4146.981,N,08808.675,W,0.00,273.19,200810,,*1C
$GPGGA,112526.000,4146.981,N,08808.675,W,1,00,0.0,0.000,M,0.0,M,,*76
$GPVTG,273.188,T,0,M,0.000,N,0.000,K*57
$GPGSA,A,3,,,,,,,,,,,,,0.0,0.0,0.0*32
$GPRMC,112526.000,A,4146.981,N,08808.676,W,0.00,273.19,200810,,*1F
$GPGGA,112526.000,4146.981,N,08808.676,W,1,00,0.0,0.000,M,0.0,M,,*75
$GPVTG,273.188,T,0,M,0.000,N,0.000,K*57
$GPGSA,A,3,,,,,,,,,,,,,0.0,0.0,0.0*32
$GPRMC,112526.000,A,4146.981,N,08808.677,W,0.00,273.19,200810,,*1E
$GPGGA,112526.000,4146.981,N,08808.677,W,1,00,0.0,0.000,M,0.0,M,,*74
$GPVTG,273.188,T,0,M,0.000,N,0.000,K*57
$GPGSA,A,3,,,,,,,,,,,,,0.0,0.0,0.0*32
$GPRMC,112527.000,A,4146.981,N,08808.678,W,2.96,273.19,200810,,*1D
$GPGGA,112527.000,4146.981,N,08808.678,W,1,00,0.0,0.000,M,0.0,M,,*7A
$GPVTG,273.188,T,0,M,2.962,N,5.486,K*57
$GPGSA,A,3,,,,,,,,,,,,,0.0,0.0,0.0*32
$GPRMC,112527.000,A,4146.981,N,08808.679,W,0.00,273.19,200810,,*11
$GPGGA,112527.000,4146.981,N,08808.679,W,1,00,0.0,0.000,M,0.0,M,,*7B
$GPVTG,273.188,T,0,M,0.000,N,0.000,K*57
$GPGSA,A,3,,,,,,,,,,,,,0.0,0.0,0.0*32
$GPRMC,112527.000,A,4146.982,N,08808.680,W,0.00,273.19,200810,,*14
$GPGGA,112527.000,4146.982,N,08808.680,W,1,00,0.0,0.000,M,0.0,M,,*7E
$GPVTG,273.188,T,0,M,0.000,N,0.000,K*57
$GPGSA,A,3,,,,,,,,,,,,,0.0,0.0,0.0*32
$GPRMC,112527.000,A,4146.982,N,08808.681,W,0.00,273.19,200810,,*15
$GPGGA,112527.000,4146.982,N,08808.681,W,1,00,0.0,0.000,M,0.0,M,,*7F
$GPVTG,273.188,T,0,M,0.000,N,0.000,K*57
$GPGSA,A,3,,,,,,,,,,,,,0.0,0.0,0.0*32
$GPRMC,112527.000,A,4146.982,N,08808.682,W,0.00,273.19,200810,,*16
$GPGGA,112527.000,4146.982,N,08808.682,W,1,00,0.0,0.000,M,0.0,M,,*7C
$GPVTG,273.188,T,0,M,0.000,N,0.000,K*57
$GPGSA,A,3,,,,,,,,,,,,,0.0,0.0,0.0*32
$GPRMC,112528.000,A,4146.982,N,08808.683,W,2.96,273.19,200810,,*15
$GPGGA,112528.000,4146.982,N,08808.683,W,1,00,0.0,0.000,M,0.0,M,,*72
$GPVTG,273.188,T,0,M,2.962,N,5.486,K*57
$GPGSA,A,3,,,,,,,,,,,,,0.0,0.0,0.0*32
$GPRMC,112528.000,A,4146.982,N,08808.684,W,0.00,273.19,200810,,*1F
$GPGGA,112528.000,4146.982,N,08808.684,W,1,00,0.0,0.000,M,0.0,M,,*75
$GPVTG,273.188,T,0,M,0.000,N,0.000,K*57
$GPGSA,A,3,,,,,,,,,,,,,0.0,0.0,0.0*32
$GPRMC,112528.000,A,4146.982,N,08808.686,W,0.00,273.19,200810,,*1D
$GPGGA,112528.000,4146.982,N,08808.686,W,1,00,0.0,0.000,M,0.0,M,,*77
$GPVTG,273.188,T,0,M,0.000,N,0.000,K*57
$GPGSA,A,3,,,,,,,,,,,,,0.0,0.0,0.0*32
$GPRMC,112528.000,A,4146.982,N,08808.687,W,0.00,273.19,200810,,*1C
$GPGGA,112528.000,4146.982,N,08808.687,W,1,00,0.0,0.000,M,0.0,M,,*76
$GPVTG,273.188,T,0,M,0.000,N,0.000,K*57
$GPGSA,A,3,,,,,,,,,,,,,0.0,0.0,0.0*32
$GPRMC,112529.000,A,4146.982,N,08808.688,W,2.96,273.19,200810,,*1F
$GPGGA,112529.000,4146.982,N,08808.688,W,1,00,0.0,0.000,M,0.0,M,,*78
$GPVTG,273.188,T,0,M,2.962,N,5.486,K*57
$GPGSA,A,3,,,,,,,,,,,,,0.0,0.0,0.0*32
$GPRMC,112529.000,A,4146.982,N,08808.689,W,0.00,273.19,200810,,*13
$GPGGA,112529.000,4146.982,N,08808.689,W,1,00,0.0,0.000,M,0.0,M,,*79
$GPVTG,273.188,T,0,M,0.000,N,0.000,K*57
$GPGSA,A,3,,,,,,,,,,,,,0.0,0.0,0.0*32
$GPRMC,112529.000,A,4146.982,N,08808.690,W,0.00,273.19,200810,,*1B
$GPGGA,112529.000,4146.982,N,08808.690,W,1,00,0.0,0.000,M,0.0,M,,*71
$GPVTG,273.188,T,0,M,0.000,N,0.000,K*57
$GPGSA,A,3,,,,,,,,,,,,,0.0,0.0,0.0*32
$GPRMC,112529.000,A,4146.982,N,08808.691,W,0.00,273.19,200810,,*1A
$GPGGA,112529.000,4146.982,N,08808.691,W,1,00,0.0,0.000,M,0.0,M,,*70
$GPVTG,273.188,T,0,M,0.000,N,0.000,K*57
$GPGSA,A,3,,,,,,,,,,,,,0.0,0.0,0.0*32
$GPRMC,112529.000,A,4146.982,N,08808.692,W,0.00,273.19,200810,,*19
$GPGGA,112529.000,4146.982,N,08808.692,W,1,00,0.0,0.000,M,0.0,M,,*73
$GPVTG,273.188,T,0,M,0.000,N,0.000,K*57
$GPGSA,A,3,,,,,,,,,,,,,0.0,0.0,0.0*32
$GPRMC,112530.000,A,4146.982,N,08808.693,W,2.96,273.19,200810,,*1D
$GPGGA,112530.000,4146.982,N,08808.693,W,1,00,0.0,0.000,M,0.0,M,,*7A
$GPVTG,273.188,T,0,M,2.962,N,5.486,K*57
$GPGSA,A,3,,,,,,,,,,,,,0.0,0.0,0.0*32
$GPRMC,112530.000,A,4146.982,N,08808.694,W,0.00,273.19,200810,,*17
$GPGGA,112530.000,4146.982,N,08808.694,W,1,00,0.0,0.000,M,0.0,M,,*7D
$GPVTG,273.188,T,0,M,0.000,N,0.000,K*57
$GPGSA,A,3,,,,,,,,,,,,,0.0,0.0,0.0*32
$GPRMC,112530.000,A,4146.982,N,08808.695,W,0.00,273.19,200810,,*16
$GPGGA,112530.000,4146.982,N,08808.695,W,1,00,0.0,0.000,M,0.0,M,,*7C
$GPVTG,273.188,T,0,M,0.000,N,0.000,K*57
$GPGSA,A,3,,,,,,,,,,,,,0.0,0.0,0.0*32
$GPRMC,112530.000,A,4146.982,N,08808.697,W,0.00,273.19,200810,,*14
$GPGGA,112530.000,4146.982,N,08808.697,W,1,00,0.0,0.000,M,0.0,M,,*7E
$GPVTG,273.188,T,0,M,0.000,N,0.000,K*57
$GPGSA,A,3,,,,,,,,,,,,,0.0,0.0,0.0*32
$GPRMC,112531.000,A,4146.982,N,08808.698,W,2.96,273.19,200810,,*17
$GPGGA,112531.000,4146.982,N,08808.698,W,1,00,0.0,0.000,M,0.0,M,,*70
$GPVTG,273.188,T,0,M,2.962,N,5.486,K*57
$GPGSA,A,3,,,,,,,,,,,,,0.0,0.0,0.0*32
$GPRMC,112531.000,A,4146.982,N,08808.699,W,0.00,273.19,200810,,*1B
$GPGGA,112531.000,4146.982,N,08808.699,W,1,00,0.0,0.000,M,0.0,M,,*71
$GPVTG,273.188,T,0,M,0.000,N,0.000,K*57
$GPGSA,A,3,,,,,,,,,,,,,0.0,0.0,0.0*32
$GPRMC,112531.000,A,4146.982,N,08808.700,W,0.00,273.19,200810,,*1A
$GPGGA,112531.000,4146.982,N,08808.700,W,1,00,0.0,0.000,M,0.0,M,,*70
$GPVTG,273.188,T,0,M,0.000,N,0.000,K*57
$GPGSA,A,3,,,,,,,,,,,,,0.0,0.0,0.0*32
$GPRMC,112531.000,A,4146.982,N,08808.701,W,0.00,273.19,200810,,*1B
$GPGGA,112531.000,4146.982,N,08808.701,W,1,00,0.0,0.000,M,0.0,M,,*71
$GPVTG,273.188,T,0,M,0.000,N,0.000,K*57
$GPGSA,A,3,,,,,,,,,,,,,0.0,0.0,0.0*32
$GPRMC,112531.000,A,4146.982,N,08808.702,W,0.00,273.19,200810,,*18
$GPGGA,112531.000,4146.982,N,08808.702,W,1,00,0.0,0.000,M,0.0,M,,*72
$GPVTG,273.188,T,0,M,0.000,N,0.000,K*57
$GPGSA,A,3,,,,,,,,,,,,,0.0,0.0,0.0*32
$GPRMC,112532.000,A,4146.982,N,08808.703,W,2.96,273.19,200810,,*17
$GPGGA,112532.000,4146.982,N,08808.703,W,1,00,0.0,0.000,M,0.0,M,,*70
$GPVTG,273.188,T,0,M,2.962,N,5.486,K*57
$GPGSA,A,3,,,,,,,,,,,,,0.0,0.0,0.0*32
$GPRMC,112532.000,A,4146.983,N,08808.704,W,0.00,273.19,200810,,*1C
$GPGGA,112532.000,4146.983,N,08808.704,W,1,00,0.0,0.000,M,0.0,M,,*76
$GPVTG,273.188,T,0,M,0.000,N,0.000,K*57
$GPGSA,A,3,,,,,,,,,,,,,0.0,0.0,0.0*32
$GPRMC,112532.000,A,4146.983,N,08808.705,W,0.00,273.19,200810,,*1D
$GPGGA,112532.000,4146.983,N,08808.705,W,1,00,0.0,0.000,M,0.0,M,,*77
$GPVTG,273.188,T,0,M,0.000,N,0.000,K*57
$GPGSA,A,3,,,,,,,,,,,,,0.0,0.0,0.0*32
$GPRMC,112532.000,A,4146.983,N,08808.706,W,0.00,273.19,200810,,*1E
$GPGGA,112532.000,4146.983,N,08808.706,W,1,00,0.0,0.000,M,0.0,M,,*74
$GPVTG,273.188,T,0,M,0.000,N,0.000,K*57
$GPGSA,A,3,,,,,,,,,,,,,0.0,0.0,0.0*32
$GPRMC,112533.000,A,4146.983,N,08808.708,W,2.96,273.19,200810,,*1C
$GPGGA,112533.000,4146.983,N,08808.708,W,1,00,0.0,0.000,M,0.0,M,,*7B
$GPVTG,273.188,T,0,M,2.962,N,5.486,K*57
$GPGSA,A,3,,,,,,,,,,,,,0.0,0.0,0.0*32
$GPRMC,112533.000,A,4146.983,N,08808.709,W,0.00,273.19,200810,,*10
$GPGGA,112533.000,4146.983,N,08808.709,W,1,00,0.0,0.000,M,0.0,M,,*7A
$GPVTG,273.188,T,0,M,0.000,N,0.000,K*57
$GPGSA,A,3,,,,,,,,,,,,,0.0,0.0,0.0*32
$GPRMC,112533.000,A,4146.983,N,08808.710,W,0.00,273.19,200810,,*18
$GPGGA,112533.000,4146.983,N,08808.710,W,1,00,0.0,0.000,M,0.0,M,,*72
$GPVTG,273.188,T,0,M,0.000,N,0.000,K*57
$GPGSA,A,3,,,,,,,,,,,,,0.0,0.0,0.0*32
$GPRMC,112533.000,A,4146.983,N,08808.711,W,0.00,273.19,200810,,*19
$GPGGA,112533.000,4146.983,N,08808.711,W,1,00,0.0,0.000,M,0.0,M,,*73
$GPVTG,273.188,T,0,M,0.000,N,0.000,K*57
$GPGSA,A,3,,,,,,,,,,,,,0.0,0.0,0.0*32
$GPRMC,112533.000,A,4146.983,N,08808.712,W,0.00,273.19,200810,,*1A
$GPGGA,112533.000,4146.983,N,08808.712,W,1,00,0.0,0.000,M,0.0,M,,*70
$GPVTG,273.188,T,0,M,0.000,N,0.000,K*57
$GPGSA,A,3,,,,,,,,,,,,,0.0,0.0,0.0*32
$GPRMC,112534.000,A,4146.983,N,08808.713,W,2.96,273.19,200810,,*11
$GPGGA,112534.000,4146.983,N,08808.713,W,1,00,0.0,0.000,M,0.0,M,,*76
$GPVTG,273.188,T,0,M,2.962,N,5.486,K*57
$GPGSA,A,3,,,,,,,,,,,,,0.0,0.0,0.0*32
$GPRMC,112534.000,A,4146.983,N,08808.714,W,0.00,273.19,200810,,*1B
$GPGGA,112534.000,4146.983,N,08808.714,W,1,00,0.0,0.000,M,0.0,M,,*71
$GPVTG,273.188,T,0,M,0.000,N,0.000,K*57
$GPGSA,A,3,,,,,,,,,,,,,0.0,0.0,0.0*32
$GPRMC,112534.000,A,4146.983,N,08808.715,W,0.00,273.19,200810,,*1A
$GPGGA,112534.000,4146.983,N,08808.715,W,1,00,0.0,0.000,M,0.0,M,,*70
$GPVTG,273.188,T,0,M,0.000,N,0.000,K*57
$GPGSA,A,3,,,,,,,,,,,,,0.0,0.0,0.0*32
$GPRMC,112534.000,A,4146.983,N,08808.716,W,0.00,273.19,200810,,*19
$GPGGA,112534.000,4146.983,N,08808.716,W,1,00,0.0,0.000,M,0.0,M,,*73
$GPVTG,273.188,T,0,M,0.000,N,0.000,K*57
$GPGSA,A,3,,,,,,,,,,,,,0.0,0.0,0.0*32
$GPRMC,112535.000,A,4146.983,N,08808.717,W,2.96,273.19,200810,,*14
$GPGGA,112535.000,4146.983,N,08808.717,W,1,00,0.0,0.000,M,0.0,M,,*73
$GPVTG,273.188,T,0,M,2.962,N,5.486,K*57
$GPGSA,A,3,,,,,,,,,,,,,0.0,0.0,0.0*32
$GPRMC,112535.000,A,4146.983,N,08808.719,W,0.00,273.19,200810,,*17
$GPGGA,112535.000,4146.983,N,08808.719,W,1,00,0.0,0.000,M,0.0,M,,*7D
$GPVTG,273.188,T,0,M,0.000,N,0.000,K*57
$GPGSA,A,3,,,,,,,,,,,,,0.0,0.0,0.0*32
$GPRMC,112535.000,A,4146.983,N,08808.720,W,0.00,273.19,200810,,*1D
$GPGGA,112535.000,4146.983,N,08808.720,W,1,00,0.0,0.000,M,0.0,M,,*77
$GPVTG,273.188,T,0,M,0.000,N,0.000,K*57
$GPGSA,A,3,,,,,,,,,,,,,0.0,0.0,0.0*32
$GPRMC,112535.000,A,4146.983,N,08808.721,W,0.00,273.19,200810,,*1C
$GPGGA,112535.000,4146.983,N,08808.721,W,1,00,0.0,0.000,M,0.0,M,,*76
$GPVTG,273.188,T,0,M,0.000,N,0.000,K*57
$GPGSA,A,3,,,,,,,,,,,,,0.0,0.0,0.0*32
$GPRMC,112535.000,A,4146.983,N,08808.722,W,0.00,273.19,200810,,*1F
$GPGGA,112535.000,4146.983,N,08808.722,W,1,00,0.0,0.000,M,0.0,M,,*75
$GPVTG,273.188,T,0,M,0.000,N,0.000,K*57
$GPGSA,A,3,,,,,,,,,,,,,0.0,0.0,0.0*32
$GPRMC,112536.000,A,4146.983,N,08808.723,W,2.96,273.19,200810,,*10
$GPGGA,112536.000,4146.983,N,08808.723,W,1,00,0.0,0.000,M,0.0,M,,*77
$GPVTG,273.188,T,0,M,2.962,N,5.486,K*57
$GPGSA,A,3,,,,,,,,,,,,,0.0,0.0,0.0*32
$GPRMC,112536.000,A,4146.983,N,08808.724,W,0.00,273.19,200810,,*1A
$GPGGA,112536.000,4146.983,N,08808.724,W,1,00,0.0,0.000,M,0.0,M,,*70
$GPVTG,273.188,T,0,M,0.000,N,0.000,K*57
$GPGSA,A,3,,,,,,,,,,,,,0.0,0.0,0.0*32
$GPRMC,112536.000,A,4146.983,N,08808.725,W,0.00,273.19,200810,,*1B
$GPGGA,112536.000,4146.983,N,08808.725,W,1,00,0.0,0.000,M,0.0,M,,*71
$GPVTG,273.188,T,0,M,0.000,N,0.000,K*57
$GPGSA,A,3,,,,,,,,,,,,,0.0,0.0,0.0*32
$GPRMC,112536.000,A,4146.983,N,08808.726,W,0.00,273.19,200810,,*18
$GPGGA,112536.000,4146.983,N,08808.726,W,1,00,0.0,0.000,M,0.0,M,,*72
$GPVTG,273.188,T,0,M,0.000,N,0.000,K*57
$GPGSA,A,3,,,,,,,,,,,,,0.0,0.0,0.0*32
$GPRMC,112537.000,A,4146.983,N,08808.727,W,2.96,273.19,200810,,*15
$GPGGA,112537.000,4146.983,N,08808.727,W,1,00,0.0,0.000,M,0.0,M,,*72
$GPVTG,273.188,T,0,M,2.962,N,5.486,K*57
$GPGSA,A,3,,,,,,,,,,,,,0.0,0.0,0.0*32
$GPRMC,112537.000,A,4146.984,N,08808.728,W,0.00,273.19,200810,,*10
$GPGGA,112537.000,4146.984,N,08808.728,W,1,00,0.0,0.000,M,0.0,M,,*7A
$GPVTG,273.188,T,0,M,0.000,N,0.000,K*57
$GPGSA,A,3,,,,,,,,,,,,,0.0,0.0,0.0*32
$GPRMC,112537.000,A,4146.984,N,08808.730,W,0.00,273.19,200810,,*19
$GPGGA,112537.000,4146.984,N,08808.730,W,1,00,0.0,0.000,M,0.0,M,,*73
$GPVTG,273.188,T,0,M,0.000,N,0.000,K*57
$GPGSA,A,3,,,,,,,,,,,,,0.0,0.0,0.0*32
$GPRMC,112537.000,A,4146.984,N,08808.731,W,0.00,273.19,200810,,*18
$GPGGA,112537.000,4146.984,N,08808.731,W,1,00,0.0,0.000,M,0.0,M,,*72
$GPVTG,273.188,T,0,M,0.000,N,0.000,K*57
$GPGSA,A,3,,,,,,,,,,,,,0.0,0.0,0.0*32
$GPRMC,112537.000,A,4146.984,N,08808.732,W,0.00,273.19,200810,,*1B
$GPGGA,112537.000,4146.984,N,08808.732,W,1,00,0.0,0.000,M,0.0,M,,*71
$GPVTG,273.188,T,0,M,0.000,N,0.000,K*57
$GPGSA,A,3,,,,,,,,,,,,,0.0,0.0,0.0*32
$GPRMC,112538.000,A,4146.984,N,08808.733,W,2.96,273.19,200810,,*18
$GPGGA,112538.000,4146.984,N,08808.733,W,1,00,0.0,0.000,M,0.0,M,,*7F
$GPVTG,273.188,T,0,M,2.962,N,5.486,K*57
$GPGSA,A,3,,,,,,,,,,,,,0.0,0.0,0.0*32
$GPRMC,112538.000,A,4146.984,N,08808.734,W,0.00,273.19,200810,,*12
$GPGGA,112538.000,4146.984,N,08808.734,W,1,00,0.0,0.000,M,0.0,M,,*78
$GPVTG,273.188,T,0,M,0.000,N,0.000,K*57
$GPGSA,A,3,,,,,,,,,,,,,0.0,0.0,0.0*32
$GPRMC,112538.000,A,4146.984,N,08808.735,W,0.00,273.19,200810,,*13
$GPGGA,112538.000,4146.984,N,08808.735,W,1,00,0.0,0.000,M,0.0,M,,*79
$GPVTG,273.187,T,0,M,0.000,N,0.000,K*58
$GPGSA,A,3,,,,,,,,,,,,,0.0,0.0,0.0*32
$GPRMC,112538.000,A,4146.984,N,08808.736,W,0.00,273.19,200810,,*10
$GPGGA,112538.000,4146.984,N,08808.736,W,1,00,0.0,0.000,M,0.0,M,,*7A
$GPVTG,273.187,T,0,M,0.000,N,0.000,K*58
$GPGSA,A,3,,,,,,,,,,,,,0.0,0.0,0.0*32
$GPRMC,112539.000,A,4146.984,N,08808.737,W,2.96,273.19,200810,,*1D
$GPGGA,112539.000,4146.984,N,08808.737,W,1,00,0.0,0.000,M,0.0,M,,*7A
$GPVTG,273.187,T,0,M,2.962,N,5.486,K*58
$GPGSA,A,3,,,,,,,,,,,,,0.0,0.0,0.0*32
$GPRMC,112539.000,A,4146.984,N,08808.738,W,0.00,273.19,200810,,*1F
$GPGGA,112539.000,4146.984,N,08808.738,W,1,00,0.0,0.000,M,0.0,M,,*75
$GPVTG,273.187,T,0,M,0.000,N,0.000,K*58
$GPGSA,A,3,,,,,,,,,,,,,0.0,0.0,0.0*32
$GPRMC,112539.000,A,4146.984,N,08808.739,W,0.00,273.19,200810,,*1E
$GPGGA,112539.000,4146.984,N,08808.739,W,1,00,0.0,0.000,M,0.0,M,,*74
$GPVTG,273.187,T,0,M,0.000,N,0.000,K*58
$GPGSA,A,3,,,,,,,,,,,,,0.0,0.0,0.0*32
$GPRMC,112539.000,A,4146.984,N,08808.741,W,0.00,273.19,200810,,*11
$GPGGA,112539.000,4146.984,N,08808.741,W,1,00,0.0,0.000,M,0.0,M,,*7B
$GPVTG,273.187,T,0,M,0.000,N,0.000,K*58
$GPGSA,A,3,,,,,,,,,,,,,0.0,0.0,0.0*32
$GPRMC,112539.000,A,4146.984,N,08808.742,W,0.00,273.19,200810,,*12
$GPGGA,112539.000,4146.984,N,08808.742,W,1,00,0.0,0.000,M,0.0,M,,*78
$GPVTG,273.187,T,0,M,0.000,N,0.000,K*58
$GPGSA,A,3,,,,,,,,,,,,,0.0,0.0,0.0*32
$GPRMC,112540.000,A,4146.984,N,08808.743,W,2.96,273.19,200810,,*10
$GPGGA,112540.000,4146.984,N,08808.743,W,1,00,0.0,0.000,M,0.0,M,,*77
$GPVTG,273.187,T,0,M,2.962,N,5.486,K*58
$GPGSA,A,3,,,,,,,,,,,,,0.0,0.0,0.0*32
$GPRMC,112540.000,A,4146.984,N,08808.744,W,0.00,273.19,200810,,*1A
$GPGGA,112540.000,4146.984,N,08808.744,W,1,00,0.0,0.000,M,0.0,M,,*70
$GPVTG,273.187,T,0,M,0.000,N,0.000,K*58
$GPGSA,A,3,,,,,,,,,,,,,0.0,0.0,0.0*32
$GPRMC,112540.000,A,4146.984,N,08808.745,W,0.00,273.19,200810,,*1B
$GPGGA,112540.000,4146.984,N,08808.745,W,1,00,0.0,0.000,M,0.0,M,,*71
$GPVTG,273.187,T,0,M,0.000,N,0.000,K*58
$GPGSA,A,3,,,,,,,,,,,,,0.0,0.0,0.0*32
$GPRMC,112540.000,A,4146.984,N,08808.746,W,0.00,273.19,200810,,*18
$GPGGA,112540.000,4146.984,N,08808.746,W,1,00,0.0,0.000,M,0.0,M,,*72
$GPVTG,273.187,T,0,M,0.000,N,0.000,K*58
$GPGSA,A,3,,,,,,,,,,,,,0.0,0.0,0.0*32
$GPRMC,112541.000,A,4146.984,N,08808.747,W,2.96,273.19,200810,,*15
$GPGGA,112541.000,4146.984,N,08808.747,W,1,00,0.0,0.000,M,0.0,M,,*72
$GPVTG,273.187,T,0,M,2.962,N,5.486,K*58
$GPGSA,A,3,,,,,,,,,,,,,0.0,0.0,0.0*32
$GPRMC,112541.000,A,4146.984,N,08808.748,W,0.00,273.19,200810,,*17
$GPGGA,112541.000,4146.984,N,08808.748,W,1,00,0.0,0.000,M,0.0,M,,*7D
$GPVTG,273.187,T,0,M,0.000,N,0.000,K*58
$GPGSA,A,3,,,,,,,,,,,,,0.0,0.0,0.0*32
$GPRMC,112541.000,A,4146.984,N,08808.749,W,0.00,273.19,200810,,*16
$GPGGA,112541.000,4146.984,N,08808.749,W,1,00,0.0,0.000,M,0.0,M,,*7C
$GPVTG,273.187,T,0,M,0.000,N,0.000,K*58
$GPGSA,A,3,,,,,,,,,,,,,0.0,0.0,0.0*32
$GPRMC,112541.000,A,4146.984,N,08808.750,W,0.00,273.19,200810,,*1E
$GPGGA,112541.000,4146.984,N,08808.750,W,1,00,0.0,0.000,M,0.0,M,,*74
$GPVTG,273.187,T,0,M,0.000,N,0.000,K*58
$GPGSA,A,3,,,,,,,,,,,,,0.0,0.0,0.0*32
$GPRMC,112541.000,A,4146.984,N,08808.752,W,0.00,273.19,200810,,*1C
$GPGGA,112541.000,4146.984,N,08808.752,W,1,00,0.0,0.000,M,0.0,M,,*76
$GPVTG,273.187,T,0,M,0.000,N,0.000,K*58
$GPGSA,A,3,,,,,,,,,,,,,0.0,0.0,0.0*32
$GPRMC,112542.000,A,4146.985,N,08808.753,W,2.96,273.19,200810,,*12
$GPGGA,112542.000,4146.985,N,08808.753,W,1,00,0.0,0.000,M,0.0,M,,*75
$GPVTG,273.187,T,0,M,2.962,N,5.486,K*58
$GPGSA,A,3,,,,,,,,,,,,,0.0,0.0,0.0*32
$GPRMC,112542.000,A,4146.985,N,08808.754,W,0.00,273.19,200810,,*18
$GPGGA,112542.000,4146.985,N,08808.754,W,1,00,0.0,0.000,M,0.0,M,,*72
$GPVTG,273.187,T,0,M,0.000,N,0.000,K*58
$GPGSA,A,3,,,,,,,,,,,,,0.0,0.0,0.0*32
$GPRMC,112542.000,A,4146.985,N,08808.755,W,0.00,273.19,200810,,*19
$GPGGA,112542.000,4146.985,N,08808.755,W,1,00,0.0,0.000,M,0.0,M,,*73
$GPVTG,273.187,T,0,M,0.000,N,0.000,K*58
$GPGSA,A,3,,,,,,,,,,,,,0.0,0.0,0.0*32
$GPRMC,112542.000,A,4146.985,N,08808.756,W,0.00,273.19,200810,,*1A
$GPGGA,112542.000,4146.985,N,08808.756,W,1,00,0.0,0.000,M,0.0,M,,*70
$GPVTG,273.187,T,0,M,0.000,N,0.000,K*58
$GPGSA,A,3,,,,,,,,,,,,,0.0,0.0,0.0*32
$GPRMC,112543.000,A,4146.985,N,08808.757,W,2.96,273.19,200810,,*17
$GPGGA,112543.000,4146.985,N,08808.757,W,1,00,0.0,0.000,M,0.0,M,,*70
$GPVTG,273.187,T,0,M,2.962,N,5.486,K*58
$GPGSA,A,3,,,,,,,,,,,,,0.0,0.0,0.0*32
$GPRMC,112543.000,A,4146.985,N,08808.758,W,0.00,273.19,200810,,*15
$GPGGA,112543.000,4146.985,N,08808.758,W,1,00,0.0,0.000,M,0.0,M,,*7F
$GPVTG,273.187,T,0,M,0.000,N,0.000,K*58
$GPGSA,A,3,,,,,,,,,,,,,0.0,0.0,0.0*32
$GPRMC,112543.000,A,4146.985,N,08808.759,W,0.00,273.19,200810,,*14
$GPGGA,112543.000,4146.985,N,08808.759,W,1,00,0.0,0.000,M,0.0,M,,*7E
$GPVTG,273.187,T,0,M,0.000,N,0.000,K*58
$GPGSA,A,3,,,,,,,,,,,,,0.0,0.0,0.0*32
$GPRMC,112543.000,A,4146.985,N,08808.760,W,0.00,273.19,200810,,*1E
$GPGGA,112543.000,4146.985,N,08808.760,W,1,00,0.0,0.000,M,0.0,M,,*74
$GPVTG,273.187,T,0,M,0.000,N,0.000,K*58
$GPGSA,A,3,,,,,,,,,,,,,0.0,0.0,0.0*32
$GPRMC,112543.000,A,4146.985,N,08808.761,W,0.00,273.19,200810,,*1F
$GPGGA,112543.000,4146.985,N,08808.761,W,1,00,0.0,0.000,M,0.0,M,,*75
$GPVTG,273.187,T,0,M,0.000,N,0.000,K*58
$GPGSA,A,3,,,,,,,,,,,,,0.0,0.0,0.0*32
$GPRMC,112544.000,A,4146.985,N,08808.763,W,2.96,273.19,200810,,*17
$GPGGA,112544.000,4146.985,N,08808.763,W,1,00,0.0,0.000,M,0.0,M,,*70
$GPVTG,273.187,T,0,M,2.962,N,5.486,K*58
$GPGSA,A,3,,,,,,,,,,,,,0.0,0.0,0.0*32
$GPRMC,112544.000,A,4146.985,N,08808.764,W,0.00,273.19,200810,,*1D
$GPGGA,112544.000,4146.985,N,08808.764,W,1,00,0.0,0.000,M,0.0,M,,*77
$GPVTG,273.187,T,0,M,0.000,N,0.000,K*58
$GPGSA,A,3,,,,,,,,,,,,,0.0,0.0,0.0*32
$GPRMC,112544.000,A,4146.985,N,08808.765,W,0.00,273.19,200810,,*1C
$GPGGA,112544.000,4146.985,N,08808.765,W,1,00,0.0,0.000,M,0.0,M,,*76
$GPVTG,273.187,T,0,M,0.000,N,0.000,K*58
$GPGSA,A,3,,,,,,,,,,,,,0.0,0.0,0.0*32
$GPRMC,112544.000,A,4146.985,N,08808.766,W,0.00,273.19,200810,,*1F
$GPGGA,112544.000,4146.985,N,08808.766,W,1,00,0.0,0.000,M,0.0,M,,*75
$GPVTG,273.187,T,0,M,0.000,N,0.000,K*58
$GPGSA,A,3,,,,,,,,,,,,,0.0,0.0,0.0*32
$GPRMC,112545.000,A,4146.985,N,08808.767,W,2.96,273.19,200810,,*12
$GPGGA,112545.000,4146.985,N,08808.767,W,1,00,0.0,0.000,M,0.0,M,,*75
$GPVTG,273.187,T,0,M,2.962,N,5.486,K*58
$GPGSA,A,3,,,,,,,,,,,,,0.0,0.0,0.0*32
$GPRMC,112545.000,A,4146.985,N,08808.768,W,0.00,273.19,200810,,*10
$GPGGA,112545.000,4146.985,N,08808.768,W,1,00,0.0,0.000,M,0.0,M,,*7A
$GPVTG,273.187,T,0,M,0.000,N,0.000,K*58
$GPGSA,A,3,,,,,,,,,,,,,0.0,0.0,0.0*32
$GPRMC,112545.000,A,4146.985,N,08808.769,W,0.00,273.19,200810,,*11
$GPGGA,112545.000,4146.985,N,08808.769,W,1,00,0.0,0.000,M,0.0,M,,*7B
$GPVTG,273.187,T,0,M,0.000,N,0.000,K*58
$GPGSA,A,3,,,,,,,,,,,,,0.0,0.0,0.0*32
$GPRMC,112545.000,A,4146.985,N,08808.770,W,0.00,273.19,200810,,*19
$GPGGA,112545.000,4146.985,N,08808.770,W,1,00,0.0,0.000,M,0.0,M,,*73
$GPVTG,273.187,T,0,M,0.000,N,0.000,K*58
$GPGSA,A,3,,,,,,,,,,,,,0.0,0.0,0.0*32
$GPRMC,112545.000,A,4146.985,N,08808.771,W,0.00,273.19,200810,,*18
$GPGGA,112545.000,4146.985,N,08808.771,W,1,00,0.0,0.000,M,0.0,M,,*72
$GPVTG,273.187,T,0,M,0.000,N,0.000,K*58
$GPGSA,A,3,,,,,,,,,,,,,0.0,0.0,0.0*32
$GPRMC,112546.000,A,4146.985,N,08808.772,W,2.96,273.19,200810,,*15
$GPGGA,112546.000,4146.985,N,08808.772,W,1,00,0.0,0.000,M,0.0,M,,*72
$GPVTG,273.187,T,0,M,2.962,N,5.486,K*58
$GPGSA,A,3,,,,,,,,,,,,,0.0,0.0,0.0*32
$GPRMC,112546.000,A,4146.985,N,08808.774,W,0.00,273.19,200810,,*1E
$GPGGA,112546.000,4146.985,N,08808.774,W,1,00,0.0,0.000,M,0.0,M,,*74
$GPVTG,273.187,T,0,M,0.000,N,0.000,K*58
$GPGSA,A,3,,,,,,,,,,,,,0.0,0.0,0.0*32
$GPRMC,112546.000,A,4146.985,N,08808.775,W,0.00,273.19,200810,,*1F
$GPGGA,112546.000,4146.985,N,08808.775,W,1,00,0.0,0.000,M,0.0,M,,*75
$GPVTG,273.187,T,0,M,0.000,N,0.000,K*58
$GPGSA,A,3,,,,,,,,,,,,,0.0,0.0,0.0*32
$GPRMC,112546.000,A,4146.985,N,08808.776,W,0.00,273.19,200810,,*1C
$GPGGA,112546.000,4146.985,N,08808.776,W,1,00,0.0,0.000,M,0.0,M,,*76
$GPVTG,273.187,T,0,M,0.000,N,0.000,K*58
$GPGSA,A,3,,,,,,,,,,,,,0.0,0.0,0.0*32
$GPRMC,112547.000,A,4146.986,N,08808.777,W,2.96,273.19,200810,,*12
$GPGGA,112547.000,4146.986,N,08808.777,W,1,00,0.0,0.000,M,0.0,M,,*75
$GPVTG,273.187,T,0,M,2.962,N,5.486,K*58
$GPGSA,A,3,,,,,,,,,,,,,0.0,0.0,0.0*32
$GPRMC,112547.000,A,4146.986,N,08808.778,W,0.00,273.19,200810,,*10
$GPGGA,112547.000,4146.986,N,08808.778,W,1,00,0.0,0.000,M,0.0,M,,*7A
$GPVTG,273.187,T,0,M,0.000,N,0.000,K*58
$GPGSA,A,3,,,,,,,,,,,,,0.0,0.0,0.0*32
$GPRMC,112547.000,A,4146.986,N,08808.779,W,0.00,273.19,200810,,*11
$GPGGA,112547.000,4146.986,N,08808.779,W,1,00,0.0,0.000,M,0.0,M,,*7B
$GPVTG,273.187,T,0,M,0.000,N,0.000,K*58
$GPGSA,A,3,,,,,,,,,,,,,0.0,0.0,0.0*32
$GPRMC,112547.000,A,4146.986,N,08808.780,W,0.00,273.19,200810,,*17
$GPGGA,112547.000,4146.986,N,08808.780,W,1,00,0.0,0.000,M,0.0,M,,*7D
$GPVTG,273.187,T,0,M,0.000,N,0.000,K*58
$GPGSA,A,3,,,,,,,,,,,,,0.0,0.0,0.0*32
$GPRMC,112547.000,A,4146.986,N,08808.781,W,0.00,273.19,200810,,*16
$GPGGA,112547.000,4146.986,N,08808.781,W,1,00,0.0,0.000,M,0.0,M,,*7C
$GPVTG,273.187,T,0,M,0.000,N,0.000,K*58
$GPGSA,A,3,,,,,,,,,,,,,0.0,0.0,0.0*32
$GPRMC,112548.000,A,4146.986,N,08808.782,W,2.96,273.19,200810,,*17
$GPGGA,112548.000,4146.986,N,08808.782,W,1,00,0.0,0.000,M,0.0,M,,*70
$GPVTG,273.187,T,0,M,2.962,N,5.486,K*58
$GPGSA,A,3,,,,,,,,,,,,,0.0,0.0,0.0*32
$GPRMC,112548.000,A,4146.986,N,08808.783,W,0.00,273.19,200810,,*1B
$GPGGA,112548.000,4146.986,N,08808.783,W,1,00,0.0,0.000,M,0.0,M,,*71
$GPVTG,273.187,T,0,M,0.000,N,0.000,K*58
$GPGSA,A,3,,,,,,,,,,,,,0.0,0.0,0.0*32
$GPRMC,112548.000,A,4146.986,N,08808.785,W,0.00,273.19,200810,,*1D
$GPGGA,112548.000,4146.986,N,08808.785,W,1,00,0.0,0.000,M,0.0,M,,*77
$GPVTG,273.187,T,0,M,0.000,N,0.000,K*58
$GPGSA,A,3,,,,,,,,,,,,,0.0,0.0,0.0*32
$GPRMC,112548.000,A,4146.986,N,08808.786,W,0.00,273.19,200810,,*1E
$GPGGA,112548.000,4146.986,N,08808.786,W,1,00,0.0,0.000,M,0.0,M,,*74
$GPVTG,273.187,T,0,M,0.000,N,0.000,K*58
$GPGSA,A,3,,,,,,,,,,,,,0.0,0.0,0.0*32
$GPRMC,112549.000,A,4146.986,N,08808.787,W,2.96,273.19,200810,,*13
$GPGGA,112549.000,4146.986,N,08808.787,W,1,00,0.0,0.000,M,0.0,M,,*74
$GPVTG,273.187,T,0,M,2.962,N,5.486,K*58
$GPGSA,A,3,,,,,,,,,,,,,0.0,0.0,0.0*32
$GPRMC,112549.000,A,4146.986,N,08808.788,W,0.00,273.19,200810,,*11
$GPGGA,112549.000,4146.986,N,08808.788,W,1,00,0.0,0.000,M,0.0,M,,*7B
$GPVTG,273.187,T,0,M,0.000,N,0.000,K*58
$GPGSA,A,3,,,,,,,,,,,,,0.0,0.0,0.0*32
$GPRMC,112549.000,A,4146.986,N,08808.789,W,0.00,273.19,200810,,*10
$GPGGA,112549.000,4146.986,N,08808.789,W,1,00,0.0,0.000,M,0.0,M,,*7A
$GPVTG,273.187,T,0,M,0.000,N,0.000,K*58
$GPGSA,A,3,,,,,,,,,,,,,0.0,0.0,0.0*32
$GPRMC,112549.000,A,4146.986,N,08808.790,W,0.00,273.19,200810,,*18
$GPGGA,112549.000,4146.986,N,08808.790,W,1,00,0.0,0.000,M,0.0,M,,*72
$GPVTG,273.187,T,0,M,0.000,N,0.000,K*58
$GPGSA,A,3,,,,,,,,,,,,,0.0,0.0,0.0*32
$GPRMC,112549.000,A,4146.986,N,08808.791,W,0.00,273.19,200810,,*19
$GPGGA,112549.000,4146.986,N,08808.791,W,1,00,0.0,0.000,M,0.0,M,,*73
$GPVTG,273.187,T,0,M,0.000,N,0.000,K*58
$GPGSA,A,3,,,,,,,,,,,,,0.0,0.0,0.0*32
$GPRMC,112550.000,A,4146.986,N,08808.792,W,2.96,273.19,200810,,*1F
$GPGGA,112550.000,4146.986,N,08808.792,W,1,00,0.0,0.000,M,0.0,M,,*78
$GPVTG,273.187,T,0,M,2.962,N,5.486,K*58
$GPGSA,A,3,,,,,,,,,,,,,0.0,0.0,0.0*32
$GPRMC,112550.000,A,4146.986,N,08808.793,W,0.00,273.19,200810,,*13
$GPGGA,112550.000,4146.986,N,08808.793,W,1,00,0.0,0.000,M,0.0,M,,*79
$GPVTG,273.187,T,0,M,0.000,N,0.000,K*58
$GPGSA,A,3,,,,,,,,,,,,,0.0,0.0,0.0*32
$GPRMC,112550.000,A,4146.986,N,08808.794,W,0.00,273.19,200810,,*14
$GPGGA,112550.000,4146.986,N,08808.794,W,1,00,0.0,0.000,M,0.0,M,,*7E
$GPVTG,273.187,T,0,M,0.000,N,0.000,K*58
$GPGSA,A,3,,,,,,,,,,,,,0.0,0.0,0.0*32
$GPRMC,112550.000,A,4146.986,N,08808.796,W,0.00,273.19,200810,,*16
$GPGGA,112550.000,4146.986,N,08808.796,W,1,00,0.0,0.000,M,0.0,M,,*7C
$GPVTG,273.187,T,0,M,0.000,N,0.000,K*58
$GPGSA,A,3,,,,,,,,,,,,,0.0,0.0,0.0*32
$GPRMC,112551.000,A,4146.986,N,08808.797,W,2.96,273.19,200810,,*1B
$GPGGA,112551.000,4146.986,N,08808.797,W,1,00,0.0,0.000,M,0.0,M,,*7C
$GPVTG,273.187,T,0,M,2.962,N,5.486,K*58
$GPGSA,A,3,,,,,,,,,,,,,0.0,0.0,0.0*32
$GPRMC,112551.000,A,4146.986,N,08808.798,W,0.00,273.19,200810,,*19
$GPGGA,112551.000,4146.986,N,08808.798,W,1,00,0.0,0.000,M,0.0,M,,*73
$GPVTG,273.187,T,0,M,0.000,N,0.000,K*58
$GPGSA,A,3,,,,,,,,,,,,,0.0,0.0,0.0*32
$GPRMC,112551.000,A,4146.986,N,08808.799,W,0.00,273.19,200810,,*18
$GPGGA,112551.000,4146.986,N,08808.799,W,1,00,0.0,0.000,M,0.0,M,,*72
$GPVTG,273.187,T,0,M,0.000,N,0.000,K*58
$GPGSA,A,3,,,,,,,,,,,,,0.0,0.0,0.0*32
$GPRMC,112551.000,A,4146.986,N,08808.800,W,0.00,273.19,200810,,*17
$GPGGA,112551.000,4146.986,N,08808.800,W,1,00,0.0,0.000,M,0.0,M,,*7D
$GPVTG,273.187,T,0,M,0.000,N,0.000,K*58
$GPGSA,A,3,,,,,,,,,,,,,0.0,0.0,0.0*32
$GPRMC,112551.000,A,4146.987,N,08808.801,W,0.00,273.19,200810,,*17
$GPGGA,112551.000,4146.987,N,08808.801,W,1,00,0.0,0.000,M,0.0,M,,*7D
$GPVTG,273.187,T,0,M,0.000,N,0.000,K*58
$GPGSA,A,3,,,,,,,,,,,,,0.0,0.0,0.0*32
$GPRMC,112552.000,A,4146.987,N,08808.802,W,2.96,273.19,200810,,*1A
$GPGGA,112552.000,4146.987,N,08808.802,W,1,00,0.0,0.000,M,0.0,M,,*7D
$GPVTG,273.187,T,0,M,2.962,N,5.486,K*58
$GPGSA,A,3,,,,,,,,,,,,,0.0,0.0,0.0*32
$GPRMC,112552.000,A,4146.987,N,08808.803,W,0.00,273.19,200810,,*16
$GPGGA,112552.000,4146.987,N,08808.803,W,1,00,0.0,0.000,M,0.0,M,,*7C
$GPVTG,273.187,T,0,M,0.000,N,0.000,K*58
$GPGSA,A,3,,,,,,,,,,,,,0.0,0.0,0.0*32
$GPRMC,112552.000,A,4146.987,N,08808.804,W,0.00,273.19,200810,,*11
$GPGGA,112552.000,4146.987,N,08808.804,W,1,00,0.0,0.000,M,0.0,M,,*7B
$GPVTG,273.187,T,0,M,0.000,N,0.000,K*58
$GPGSA,A,3,,,,,,,,,,,,,0.0,0.0,0.0*32
$GPRMC,112552.000,A,4146.987,N,08808.805,W,0.00,273.19,200810,,*10
$GPGGA,112552.000,4146.987,N,08808.805,W,1,00,0.0,0.000,M,0.0,M,,*7A
$GPVTG,273.187,T,0,M,0.000,N,0.000,K*58
$GPGSA,A,3,,,,,,,,,,,,,0.0,0.0,0.0*32
$GPRMC,112553.000,A,4146.987,N,08808.807,W,2.96,273.19,200810,,*1E
$GPGGA,112553.000,4146.987,N,08808.807,W,1,00,0.0,0.000,M,0.0,M,,*79
$GPVTG,273.187,T,0,M,2.962,N,5.486,K*58
$GPGSA,A,3,,,,,,,,,,,,,0.0,0.0,0.0*32
$GPRMC,112553.000,A,4146.987,N,08808.808,W,0.00,273.19,200810,,*1C
$GPGGA,112553.000,4146.987,N,08808.808,W,1,00,0.0,0.000,M,0.0,M,,*76
$GPVTG,273.187,T,0,M,0.000,N,0.000,K*58
$GPGSA,A,3,,,,,,,,,,,,,0.0,0.0,0.0*32
$GPRMC,112553.000,A,4146.987,N,08808.809,W,0.00,273.19,200810,,*1D
$GPGGA,112553.000,4146.987,N,08808.809,W,1,00,0.0,0.000,M,0.0,M,,*77
$GPVTG,273.187,T,0,M,0.000,N,0.000,K*58
$GPGSA,A,3,,,,,,,,,,,,,0.0,0.0,0.0*32
$GPRMC,112553.000,A,4146.987,N,08808.810,W,0.00,273.19,200810,,*15
$GPGGA,112553.000,4146.987,N,08808.810,W,1,00,0.0,0.000,M,0.0,M,,*7F
$GPVTG,273.187,T,0,M,0.000,N,0.000,K*58
$GPGSA,A,3,,,,,,,,,,,,,0.0,0.0,0.0*32
$GPRMC,112553.000,A,4146.987,N,08808.811,W,0.00,273.19,200810,,*14
$GPGGA,112553.000,4146.987,N,08808.811,W,1,00,0.0,0.000,M,0.0,M,,*7E
$GPVTG,273.187,T,0,M,0.000,N,0.000,K*58
$GPGSA,A,3,,,,,,,,,,,,,0.0,0.0,0.0*32
$GPRMC,112554.000,A,4146.987,N,08808.812,W,2.96,273.19,200810,,*1D
$GPGGA,112554.000,4146.987,N,08808.812,W,1,00,0.0,0.000,M,0.0,M,,*7A
$GPVTG,273.187,T,0,M,2.962,N,5.486,K*58
$GPGSA,A,3,,,,,,,,,,,,,0.0,0.0,0.0*32
$GPRMC,112554.000,A,4146.987,N,08808.813,W,0.00,273.19,200810,,*11
$GPGGA,112554.000,4146.987,N,08808.813,W,1,00,0.0,0.000,M,0.0,M,,*7B
$GPVTG,273.187,T,0,M,0.000,N,0.000,K*58
$GPGSA,A,3,,,,,,,,,,,,,0.0,0.0,0.0*32
$GPRMC,112554.000,A,4146.987,N,08808.814,W,0.00,273.19,200810,,*16
$GPGGA,112554.000,4146.987,N,08808.814,W,1,00,0.0,0.000,M,0.0,M,,*7C
$GPVTG,273.187,T,0,M,0.000,N,0.000,K*58
$GPGSA,A,3,,,,,,,,,,,,,0.0,0.0,0.0*32
$GPRMC,112554.000,A,4146.987,N,08808.815,W,0.00,273.19,200810,,*17
$GPGGA,112554.000,4146.987,N,08808.815,W,1,00,0.0,0.000,M,0.0,M,,*7D
$GPVTG,273.187,T,0,M,0.000,N,0.000,K*58
$GPGSA,A,3,,,,,,,,,,,,,0.0,0.0,0.0*32
$GPRMC,112555.000,A,4146.987,N,08808.816,W,2.96,273.19,200810,,*18
$GPGGA,112555.000,4146.987,N,08808.816,W,1,00,0.0,0.000,M,0.0,M,,*7F
$GPVTG,273.187,T,0,M,2.962,N,5.486,K*58
$GPGSA,A,3,,,,,,,,,,,,,0.0,0.0,0.0*32
$GPRMC,112555.000,A,4146.987,N,08808.818,W,0.00,273.19,200810,,*1B
$GPGGA,112555.000,4146.987,N,08808.818,W,1,00,0.0,0.000,M,0.0,M,,*71
$GPVTG,273.187,T,0,M,0.000,N,0.000,K*58
$GPGSA,A,3,,,,,,,,,,,,,0.0,0.0,0.0*32
$GPRMC,112555.000,A,4146.987,N,08808.819,W,0.00,273.19,200810,,*1A
$GPGGA,112555.000,4146.987,N,08808.819,W,1,00,0.0,0.000,M,0.0,M,,*70
$GPVTG,273.187,T,0,M,0.000,N,0.000,K*58
$GPGSA,A,3,,,,,,,,,,,,,0.0,0.0,0.0*32
$GPRMC,112555.000,A,4146.987,N,08808.820,W,0.00,273.19,200810,,*10
$GPGGA,112555.000,4146.987,N,08808.820,W,1,00,0.0,0.000,M,0.0,M,,*7A
$GPVTG,273.187,T,0,M,0.000,N,0.000,K*58
$GPGSA,A,3,,,,,,,,,,,,,0.0,0.0,0.0*32
$GPRMC,112555.000,A,4146.987,N,08808.821,W,0.00,273.19,200810,,*11
$GPGGA,112555.000,4146.987,N,08808.821,W,1,00,0.0,0.000,M,0.0,M,,*7B
$GPVTG,273.187,T,0,M,0.000,N,0.000,K*58
$GPGSA,A,3,,,,,,,,,,,,,0.0,0.0,0.0*32
$GPRMC,112556.000,A,4146.987,N,08808.822,W,2.96,273.19,200810,,*1C
$GPGGA,112556.000,4146.987,N,08808.822,W,1,00,0.0,0.000,M,0.0,M,,*7B
$GPVTG,273.187,T,0,M,2.962,N,5.486,K*58
$GPGSA,A,3,,,,,,,,,,,,,0.0,0.0,0.0*32
$GPRMC,112556.000,A,4146.987,N,08808.823,W,0.00,273.19,200810,,*10
$GPGGA,112556.000,4146.987,N,08808.823,W,1,00,0.0,0.000,M,0.0,M,,*7A
$GPVTG,273.186,T,0,M,0.000,N,0.000,K*59
$GPGSA,A,3,,,,,,,,,,,,,0.0,0.0,0.0*32
$GPRMC,112556.000,A,4146.988,N,08808.824,W,0.00,273.19,200810,,*18
$GPGGA,112556.000,4146.988,N,08808.824,W,1,00,0.0,0.000,M,0.0,M,,*72
$GPVTG,273.186,T,0,M,0.000,N,0.000,K*59
$GPGSA,A,3,,,,,,,,,,,,,0.0,0.0,0.0*32
$GPRMC,112556.000,A,4146.988,N,08808.825,W,0.00,273.19,200810,,*19
$GPGGA,112556.000,4146.988,N,08808.825,W,1,00,0.0,0.000,M,0.0,M,,*73
$GPVTG,273.186,T,0,M,0.000,N,0.000,K*59
$GPGSA,A,3,,,,,,,,,,,,,0.0,0.0,0.0*32
$GPRMC,112557.000,A,4146.988,N,08808.826,W,2.96,273.19,200810,,*16
$GPGGA,112557.000,4146.988,N,08808.826,W,1,00,0.0,0.000,M,0.0,M,,*71
$GPVTG,273.186,T,0,M,2.962,N,5.486,K*59
$GPGSA,A,3,,,,,,,,,,,,,0.0,0.0,0.0*32
$GPRMC,112557.000,A,4146.988,N,08808.827,W,0.00,273.19,200810,,*1A
$GPGGA,112557.000,4146.988,N,08808.827,W,1,00,0.0,0.000,M,0.0,M,,*70
$GPVTG,273.186,T,0,M,0.000,N,0.000,K*59
$GPGSA,A,3,,,,,,,,,,,,,0.0,0.0,0.0*32
$GPRMC,112557.000,A,4146.988,N,08808.829,W,0.00,273.19,200810,,*14
$GPGGA,112557.000,4146.988,N,08808.829,W,1,00,0.0,0.000,M,0.0,M,,*7E
$GPVTG,273.186,T,0,M,0.000,N,0.000,K*59
$GPGSA,A,3,,,,,,,,,,,,,0.0,0.0,0.0*32
$GPRMC,112557.000,A,4146.988,N,08808.830,W,0.00,273.19,200810,,*1C
$GPGGA,112557.000,4146.988,N,08808.830,W,1,00,0.0,0.000,M,0.0,M,,*76
$GPVTG,273.186,T,0,M,0.000,N,0.000,K*59
$GPGSA,A,3,,,,,,,,,,,,,0.0,0.0,0.0*32
$GPRMC,112557.000,A,4146.988,N,08808.831,W,0.00,273.19,200810,,*1D
$GPGGA,112557.000,4146.988,N,08808.831,W,1,00,0.0,0.000,M,0.0,M,,*77
$GPVTG,273.186,T,0,M,0.000,N,0.000,K*59
$GPGSA,A,3,,,,,,,,,,,,,0.0,0.0,0.0*32
$GPRMC,112558.000,A,4146.988,N,08808.832,W,2.96,273.19,200810,,*1C
$GPGGA,112558.000,4146.988,N,08808.832,W,1,00,0.0,0.000,M,0.0,M,,*7B
$GPVTG,273.186,T,0,M,2.962,N,5.486,K*59
$GPGSA,A,3,,,,,,,,,,,,,0.0,0.0,0.0*32
$GPRMC,112558.000,A,4146.988,N,08808.833,W,0.00,273.19,200810,,*10
$GPGGA,112558.000,4146.988,N,08808.833,W,1,00,0.0,0.000,M,0.0,M,,*7A
$GPVTG,273.186,T,0,M,0.000,N,0.000,K*59
$GPGSA,A,3,,,,,,,,,,,,,0.0,0.0,0.0*32
$GPRMC,112558.000,A,4146.988,N,08808.834,W,0.00,273.19,200810,,*17
$GPGGA,112558.000,4146.988,N,08808.834,W,1,00,0.0,0.000,M,0.0,M,,*7D
$GPVTG,273.186,T,0,M,0.000,N,0.000,K*59
$GPGSA,A,3,,,,,,,,,,,,,0.0,0.0,0.0*32
$GPRMC,112558.000,A,4146.988,N,08808.835,W,0.00,273.19,200810,,*16
$GPGGA,112558.000,4146.988,N,08808.835,W,1,00,0.0,0.000,M,0.0,M,,*7C
$GPVTG,273.186,T,0,M,0.000,N,0.000,K*59
$GPGSA,A,3,,,,,,,,,,,,,0.0,0.0,0.0*32
$GPRMC,112559.000,A,4146.988,N,08808.836,W,2.96,273.19,200810,,*19
$GPGGA,112559.000,4146.988,N,08808.836,W,1,00,0.0,0.000,M,0.0,M,,*7E
$GPVTG,273.186,T,0,M,2.962,N,5.486,K*59
$GPGSA,A,3,,,,,,,,,,,,,0.0,0.0,0.0*32
$GPRMC,112559.000,A,4146.988,N,08808.837,W,0.00,273.19,200810,,*15
$GPGGA,112559.000,4146.988,N,08808.837,W,1,00,0.0,0.000,M,0.0,M,,*7F
$GPVTG,273.186,T,0,M,0.000,N,0.000,K*59
$GPGSA,A,3,,,,,,,,,,,,,0.0,0.0,0.0*32
$GPRMC,112559.000,A,4146.988,N,08808.838,W,0.00,273.19,200810,,*1A
$GPGGA,112559.000,4146.988,N,08808.838,W,1,00,0.0,0.000,M,0.0,M,,*70
$GPVTG,273.186,T,0,M,0.000,N,0.000,K*59
$GPGSA,A,3,,,,,,,,,,,,,0.0,0.0,0.0*32
$GPRMC,112559.000,A,4146.988,N,08808.840,W,0.00,273.19,200810,,*15
$GPGGA,112559.000,4146.988,N,08808.840,W,1,00,0.0,0.000,M,0.0,M,,*7F
$GPVTG,273.186,T,0,M,0.000,N,0.000,K*59
$GPGSA,A,3,,,,,,,,,,,,,0.0,0.0,0.0*32
$GPRMC,112559.000,A,4146.988,N,08808.841,W,0.00,273.19,200810,,*14
$GPGGA,112559.000,4146.988,N,08808.841,W,1,00,0.0,0.000,M,0.0,M,,*7E
$GPVTG,273.186,T,0,M,0.000,N,0.000,K*59
$GPGSA,A,3,,,,,,,,,,,,,0.0,0.0,0.0*32
$GPRMC,112600.000,A,4146.988,N,08808.842,W,2.96,273.19,200810,,*15
$GPGGA,112600.000,4146.988,N,08808.842,W,1,00,0.0,0.000,M,0.0,M,,*72
$GPVTG,273.186,T,0,M,2.962,N,5.486,K*59
$GPGSA,A,3,,,,,,,,,,,,,0.0,0.0,0.0*32
$GPRMC,112600.000,A,4146.988,N,08808.843,W,0.00,273.19,200810,,*19
$GPGGA,112600.000,4146.988,N,08808.843,W,1,00,0.0,0.000,M,0.0,M,,*73
$GPVTG,273.186,T,0,M,0.000,N,0.000,K*59
$GPGSA,A,3,,,,,,,,,,,,,0.0,0.0,0.0*32
$GPRMC,112600.000,A,4146.988,N,08808.844,W,0.00,273.19,200810,,*1E
$GPGGA,112600.000,4146.988,N,08808.844,W,1,00,0.0,0.000,M,0.0,M,,*74
$GPVTG,273.186,T,0,M,0.000,N,0.000,K*59
$GPGSA,A,3,,,,,,,,,,,,,0.0,0.0,0.0*32
$GPRMC,112600.000,A,4146.988,N,08808.845,W,0.00,273.19,200810,,*1F
$GPGGA,112600.000,4146.988,N,08808.845,W,1,00,0.0,0.000,M,0.0,M,,*75
$GPVTG,273.186,T,0,M,0.000,N,0.000,K*59
$GPGSA,A,3,,,,,,,,,,,,,0.0,0.0,0.0*32
$GPRMC,112601.000,A,4146.988,N,08808.846,W,1.94,273.19,200810,,*11
$GPGGA,112601.000,4146.988,N,08808.846,W,1,00,0.0,0.000,M,0.0,M,,*77
$GPVTG,273.186,T,0,M,1.937,N,3.587,K*5C
$GPGSA,A,3,,,,,,,,,,,,,0.0,0.0,0.0*32
$GPRMC,112601.000,A,4146.988,N,08808.846,W,0.00,181.42,200810,,*1D
$GPGGA,112601.000,4146.988,N,08808.846,W,1,00,0.0,0.000,M,0.0,M,,*77
$GPVTG,181.417,T,0,M,0.000,N,0.000,K*5A
$GPGSA,A,3,,,,,,,,,,,,,0.0,0.0,0.0*32
$GPRMC,112601.000,A,4146.987,N,08808.846,W,0.00,181.42,200810,,*12
$GPGGA,112601.000,4146.987,N,08808.846,W,1,00,0.0,0.000,M,0.0,M,,*78
$GPVTG,181.417,T,0,M,0.000,N,0.000,K*5A
$GPGSA,A,3,,,,,,,,,,,,,0.0,0.0,0.0*32
$GPRMC,112601.000,A,4146.986,N,08808.846,W,0.00,181.42,200810,,*13
$GPGGA,112601.000,4146.986,N,08808.846,W,1,00,0.0,0.000,M,0.0,M,,*79
$GPVTG,181.417,T,0,M,0.000,N,0.000,K*5A
$GPGSA,A,3,,,,,,,,,,,,,0.0,0.0,0.0*32
$GPRMC,112601.000,A,4146.985,N,08808.846,W,0.00,181.42,200810,,*10
$GPGGA,112601.000,4146.985,N,08808.846,W,1,00,0.0,0.000,M,0.0,M,,*7A
$GPVTG,181.417,T,0,M,0.000,N,0.000,K*5A
$GPGSA,A,3,,,,,,,,,,,,,0.0,0.0,0.0*32
$GPRMC,112602.000,A,4146.984,N,08808.846,W,2.96,181.42,200810,,*1F
$GPGGA,112602.000,4146.984,N,08808.846,W,1,00,0.0,0.000,M,0.0,M,,*78
$GPVTG,181.417,T,0,M,2.962,N,5.486,K*5A
$GPGSA,A,3,,,,,,,,,,,,,0.0,0.0,0.0*32
$GPRMC,112602.000,A,4146.983,N,08808.846,W,0.00,181.42,200810,,*15
$GPGGA,112602.000,4146.983,N,08808.846,W,1,00,0.0,0.000,M,0.0,M,,*7F
$GPVTG,181.417,T,0,M,0.000,N,0.000,K*5A
$GPGSA,A,3,,,,,,,,,,,,,0.0,0.0,0.0*32
$GPRMC,112602.000,A,4146.983,N,08808.846,W,0.00,181.42,200810,,*15
$GPGGA,112602.000,4146.983,N,08808.846,W,1,00,0.0,0.000,M,0.0,M,,*7F
$GPVTG,181.417,T,0,M,0.000,N,0.000,K*5A
$GPGSA,A,3,,,,,,,,,,,,,0.0,0.0,0.0*32
$GPRMC,112602.000,A,4146.982,N,08808.846,W,0.00,181.42,200810,,*14
$GPGGA,112602.000,4146.982,N,08808.846,W,1,00,0.0,0.000,M,0.0,M,,*7E
$GPVTG,181.417,T,0,M,0.000,N,0.000,K*5A
$GPGSA,A,3,,,,,,,,,,,,,0.0,0.0,0.0*32
$GPRMC,112603.000,A,4146.981,N,08808.846,W,2.96,181.42,200810,,*1B
$GPGGA,112603.000,4146.981,N,08808.846,W,1,00,0.0,0.000,M,0.0,M,,*7C
$GPVTG,181.417,T,0,M,2.962,N,5.486,K*5A
$GPGSA,A,3,,,,,,,,,,,,,0.0,0.0,0.0*32
$GPRMC,112603.000,A,4146.980,N,08808.846,W,0.00,181.42,200810,,*17
$GPGGA,112603.000,4146.980,N,08808.846,W,1,00,0.0,0.000,M,0.0,M,,*7D
$GPVTG,181.417,T,0,M,0.000,N,0.000,K*5A
$GPGSA,A,3,,,,,,,,,,,,,0.0,0.0,0.0*32
$GPRMC,112603.000,A,4146.979,N,08808.846,W,0.00,181.42,200810,,*11
$GPGGA,112603.000,4146.979,N,08808.846,W,1,00,0.0,0.000,M,0.0,M,,*7B
$GPVTG,181.417,T,0,M,0.000,N,0.000,K*5A
$GPGSA,A,3,,,,,,,,,,,,,0.0,0.0,0.0*32
$GPRMC,112603.000,A,4146.979,N,08808.846,W,0.00,181.42,200810,,*11
$GPGGA,112603.000,4146.979,N,08808.846,W,1,00,0.0,0.000,M,0.0,M,,*7B
$GPVTG,181.417,T,0,M,0.000,N,0.000,K*5A
$GPGSA,A,3,,,,,,,,,,,,,0.0,0.0,0.0*32
$GPRMC,112603.000,A,4146.978,N,08808.846,W,0.00,181.42,200810,,*10
$GPGGA,112603.000,4146.978,N,08808.846,W,1,00,0.0,0.000,M,0.0,M,,*7A
$GPVTG,181.417,T,0,M,0.000,N,0.000,K*5A
$GPGSA,A,3,,,,,,,,,,,,,0.0,0.0,0.0*32
$GPRMC,112604.000,A,4146.977,N,08808.846,W,2.96,181.42,200810,,*15
$GPGGA,112604.000,4146.977,N,08808.846,W,1,00,0.0,0.000,M,0.0,M,,*72
$GPVTG,181.417,T,0,M,2.962,N,5.486,K*5A
$GPGSA,A,3,,,,,,,,,,,,,0.0,0.0,0.0*32
$GPRMC,112604.000,A,4146.976,N,08808.846,W,0.00,181.42,200810,,*19
$GPGGA,112604.000,4146.976,N,08808.846,W,1,00,0.0,0.000,M,0.0,M,,*73
$GPVTG,181.417,T,0,M,0.000,N,0.000,K*5A
$GPGSA,A,3,,,,,,,,,,,,,0.0,0.0,0.0*32
$GPRMC,112604.000,A,4146.975,N,08808.846,W,0.00,181.42,200810,,*1A
$GPGGA,112604.000,4146.975,N,08808.846,W,1,00,0.0,0.000,M,0.0,M,,*70
$GPVTG,181.417,T,0,M,0.000,N,0.000,K*5A
$GPGSA,A,3,,,,,,,,,,,,,0.0,0.0,0.0*32
$GPRMC,112604.000,A,4146.974,N,08808.846,W,0.00,181.42,200810,,*1B
$GPGGA,112604.000,4146.974,N,08808.846,W,1,00,0.0,0.000,M,0.0,M,,*71
$GPVTG,181.417,T,0,M,0.000,N,0.000,K*5A
$GPGSA,A,3,,,,,,,,,,,,,0.0,0.0,0.0*32
$GPRMC,112605.000,A,4146.974,N,08808.846,W,2.96,181.42,200810,,*17
$GPGGA,112605.000,4146.974,N,08808.846,W,1,00,0.0,0.000,M,0.0,M,,*70
$GPVTG,181.417,T,0,M,2.962,N,5.486,K*5A
$GPGSA,A,3,,,,,,,,,,,,,0.0,0.0,0.0*32
$GPRMC,112605.000,A,4146.973,N,08808.846,W,0.00,181.42,200810,,*1D
$GPGGA,112605.000,4146.973,N,08808.846,W,1,00,0.0,0.000,M,0.0,M,,*77
$GPVTG,181.417,T,0,M,0.000,N,0.000,K*5A
$GPGSA,A,3,,,,,,,,,,,,,0.0,0.0,0.0*32
$GPRMC,112605.000,A,4146.972,N,08808.846,W,0.00,181.42,200810,,*1C
$GPGGA,112605.000,4146.972,N,08808.846,W,1,00,0.0,0.000,M,0.0,M,,*76
$GPVTG,181.417,T,0,M,0.000,N,0.000,K*5A
$GPGSA,A,3,,,,,,,,,,,,,0.0,0.0,0.0*32
$GPRMC,112605.000,A,4146.971,N,08808.846,W,0.00,181.42,200810,,*1F
$GPGGA,112605.000,4146.971,N,08808.846,W,1,00,0.0,0.000,M,0.0,M,,*75
$GPVTG,181.417,T,0,M,0.000,N,0.000,K*5A
$GPGSA,A,3,,,,,,,,,,,,,0.0,0.0,0.0*32
$GPRMC,112605.000,A,4146.970,N,08808.846,W,0.00,181.42,200810,,*1E
$GPGGA,112605.000,4146.970,N,08808.846,W,1,00,0.0,0.000,M,0.0,M,,*74
$GPVTG,181.417,T,0,M,0.000,N,0.000,K*5A
$GPGSA,A,3,,,,,,,,,,,,,0.0,0.0,0.0*32
$GPRMC,112606.000,A,4146.970,N,08808.846,W,2.96,181.42,200810,,*10
$GPGGA,112606.000,4146.970,N,08808.846,W,1,00,0.0,0.000,M,0.0,M,,*77
$GPVTG,181.417,T,0,M,2.962,N,5.486,K*5A
$GPGSA,A,3,,,,,,,,,,,,,0.0,0.0,0.0*32
$GPRMC,112606.000,A,4146.969,N,08808.846,W,0.00,181.42,200810,,*15
$GPGGA,112606.000,4146.969,N,08808.846,W,1,00,0.0,0.000,M,0.0,M,,*7F
$GPVTG,181.417,T,0,M,0.000,N,0.000,K*5A
$GPGSA,A,3,,,,,,,,,,,,,0.0,0.0,0.0*32
$GPRMC,112606.000,A,4146.968,N,08808.846,W,0.00,181.42,200810,,*14
$GPGGA,112606.000,4146.968,N,08808.846,W,1,00,0.0,0.000,M,0.0,M,,*7E
$GPVTG,181.417,T,0,M,0.000,N,0.000,K*5A
$GPGSA,A,3,,,,,,,,,,,,,0.0,0.0,0.0*32
$GPRMC,112606.000,A,4146.967,N,08808.847,W,0.00,181.42,200810,,*1A
$GPGGA,112606.000,4146.967,N,08808.847,W,1,00,0.0,0.000,M,0.0,M,,*70
$GPVTG,181.417,T,0,M,0.000,N,0.000,K*5A
$GPGSA,A,3,,,,,,,,,,,,,0.0,0.0,0.0*32
$GPRMC,112607.000,A,4146.966,N,08808.847,W,2.96,181.42,200810,,*17
$GPGGA,112607.000,4146.966,N,08808.847,W,1,00,0.0,0.000,M,0.0,M,,*70
$GPVTG,181.417,T,0,M,2.962,N,5.486,K*5A
$GPGSA,A,3,,,,,,,,,,,,,0.0,0.0,0.0*32
$GPRMC,112607.000,A,4146.965,N,08808.847,W,0.00,181.42,200810,,*19
$GPGGA,112607.000,4146.965,N,08808.847,W,1,00,0.0,0.000,M,0.0,M,,*73
$GPVTG,181.417,T,0,M,0.000,N,0.000,K*5A
$GPGSA,A,3,,,,,,,,,,,,,0.0,0.0,0.0*32
$GPRMC,112607.000,A,4146.965,N,08808.847,W,0.00,181.42,200810,,*19
$GPGGA,112607.000,4146.965,N,08808.847,W,1,00,0.0,0.000,M,0.0,M,,*73
$GPVTG,181.417,T,0,M,0.000,N,0.000,K*5A
$GPGSA,A,3,,,,,,,,,,,,,0.0,0.0,0.0*32
$GPRMC,112607.000,A,4146.964,N,08808.847,W,0.00,181.42,200810,,*18
$GPGGA,112607.000,4146.964,N,08808.847,W,1,00,0.0,0.000,M,0.0,M,,*72
$GPVTG,181.417,T,0,M,0.000,N,0.000,K*5A
$GPGSA,A,3,,,,,,,,,,,,,0.0,0.0,0.0*32
$GPRMC,112608.000,A,4146.963,N,08808.847,W,2.96,181.42,200810,,*1D
$GPGGA,112608.000,4146.963,N,08808.847,W,1,00,0.0,0.000,M,0.0,M,,*7A
$GPVTG,181.417,T,0,M,2.962,N,5.486,K*5A
$GPGSA,A,3,,,,,,,,,,,,,0.0,0.0,0.0*32
$GPRMC,112608.000,A,4146.962,N,08808.847,W,0.00,181.42,200810,,*11
$GPGGA,112608.000,4146.962,N,08808.847,W,1,00,0.0,0.000,M,0.0,M,,*7B
$GPVTG,181.417,T,0,M,0.000,N,0.000,K*5A
$GPGSA,A,3,,,,,,,,,,,,,0.0,0.0,0.0*32
$GPRMC,112608.000,A,4146.961,N,08808.847,W,0.00,181.42,200810,,*12
$GPGGA,112608.000,4146.961,N,08808.847,W,1,00,0.0,0.000,M,0.0,M,,*78
$GPVTG,181.417,T,0,M,0.000,N,0.000,K*5A
$GPGSA,A,3,,,,,,,,,,,,,0.0,0.0,0.0*32
$GPRMC,112608.000,A,4146.960,N,08808.847,W,0.00,181.42,200810,,*13
$GPGGA,112608.000,4146.960,N,08808.847,W,1,00,0.0,0.000,M,0.0,M,,*79
$GPVTG,181.417,T,0,M,0.000,N,0.000,K*5A
$GPGSA,A,3,,,,,,,,,,,,,0.0,0.0,0.0*32
$GPRMC,112608.000,A,4146.960,N,08808.847,W,0.00,181.42,200810,,*13
$GPGGA,112608.000,4146.960,N,08808.847,W,1,00,0.0,0.000,M,0.0,M,,*79
$GPVTG,181.417,T,0,M,0.000,N,0.000,K*5A
$GPGSA,A,3,,,,,,,,,,,,,0.0,0.0,0.0*32
$GPRMC,112609.000,A,4146.959,N,08808.847,W,2.96,181.42,200810,,*15
$GPGGA,112609.000,4146.959,N,08808.847,W,1,00,0.0,0.000,M,0.0,M,,*72
$GPVTG,181.417,T,0,M,2.962,N,5.486,K*5A
$GPGSA,A,3,,,,,,,,,,,,,0.0,0.0,0.0*32
$GPRMC,112609.000,A,4146.958,N,08808.847,W,0.00,181.42,200810,,*19
$GPGGA,112609.000,4146.958,N,08808.847,W,1,00,0.0,0.000,M,0.0,M,,*73
$GPVTG,181.417,T,0,M,0.000,N,0.000,K*5A
$GPGSA,A,3,,,,,,,,,,,,,0.0,0.0,0.0*32
$GPRMC,112609.000,A,4146.957,N,08808.847,W,0.00,181.42,200810,,*16
$GPGGA,112609.000,4146.957,N,08808.847,W,1,00,0.0,0.000,M,0.0,M,,*7C
$GPVTG,181.417,T,0,M,0.000,N,0.000,K*5A
$GPGSA,A,3,,,,,,,,,,,,,0.0,0.0,0.0*32
$GPRMC,112609.000,A,4146.956,N,08808.847,W,0.00,181.42,200810,,*17
$GPGGA,112609.000,4146.956,N,08808.847,W,1,00,0.0,0.000,M,0.0,M,,*7D
$GPVTG,181.417,T,0,M,0.000,N,0.000,K*5A
$GPGSA,A,3,,,,,,,,,,,,,0.0,0.0,0.0*32
$GPRMC,112610.000,A,4146.956,N,08808.847,W,2.96,181.42,200810,,*12
$GPGGA,112610.000,4146.956,N,08808.847,W,1,00,0.0,0.000,M,0.0,M,,*75
$GPVTG,181.417,T,0,M,2.962,N,5.486,K*5A
$GPGSA,A,3,,,,,,,,,,,,,0.0,0.0,0.0*32
$GPRMC,112610.000,A,4146.955,N,08808.847,W,0.00,181.42,200810,,*1C
$GPGGA,112610.000,4146.955,N,08808.847,W,1,00,0.0,0.000,M,0.0,M,,*76
$GPVTG,181.417,T,0,M,0.000,N,0.000,K*5A
$GPGSA,A,3,,,,,,,,,,,,,0.0,0.0,0.0*32
$GPRMC,112610.000,A,4146.954,N,08808.847,W,0.00,181.42,200810,,*1D
$GPGGA,112610.000,4146.954,N,08808.847,W,1,00,0.0,0.000,M,0.0,M,,*77
$GPVTG,181.417,T,0,M,0.000,N,0.000,K*5A
$GPGSA,A,3,,,,,,,,,,,,,0.0,0.0,0.0*32
$GPRMC,112610.000,A,4146.953,N,08808.847,W,0.00,181.42,200810,,*1A
$GPGGA,112610.000,4146.953,N,08808.847,W,1,00,0.0,0.000,M,0.0,M,,*70
$GPVTG,181.417,T,0,M,0.000,N,0.000,K*5A
$GPGSA,A,3,,,,,,,,,,,,,0.0,0.0,0.0*32
$GPRMC,112610.000,A,4146.952,N,08808.847,W,0.00,181.42,200810,,*1B
$GPGGA,112610.000,4146.952,N,08808.847,W,1,00,0.0,0.000,M,0.0,M,,*71
$GPVTG,181.417,T,0,M,0.000,N,0.000,K*5A
$GPGSA,A,3,,,,,,,,,,,,,0.0,0.0,0.0*32
$GPRMC,112611.000,A,4146.951,N,08808.847,W,2.96,181.42,200810,,*14
$GPGGA,112611.000,4146.951,N,08808.847,W,1,00,0.0,0.000,M,0.0,M,,*73
$GPVTG,181.417,T,0,M,2.962,N,5.486,K*5A
$GPGSA,A,3,,,,,,,,,,,,,0.0,0.0,0.0*32
$GPRMC,112611.000,A,4146.951,N,08808.847,W,0.00,181.42,200810,,*19
$GPGGA,112611.000,4146.951,N,08808.847,W,1,00,0.0,0.000,M,0.0,M,,*73
$GPVTG,181.417,T,0,M,0.000,N,0.000,K*5A
$GPGSA,A,3,,,,,,,,,,,,,0.0,0.0,0.0*32
$GPRMC,112611.000,A,4146.950,N,08808.847,W,0.00,181.42,200810,,*18
$GPGGA,112611.000,4146.950,N,08808.847,W,1,00,0.0,0.000,M,0.0,M,,*72
$GPVTG,181.417,T,0,M,0.000,N,0.000,K*5A
$GPGSA,A,3,,,,,,,,,,,,,0.0,0.0,0.0*32
$GPRMC,112611.000,A,4146.949,N,08808.847,W,0.00,181.42,200810,,*10
$GPGGA,112611.000,4146.949,N,08808.847,W,1,00,0.0,0.000,M,0.0,M,,*7A
$GPVTG,181.417,T,0,M,0.000,N,0.000,K*5A
$GPGSA,A,3,,,,,,,,,,,,,0.0,0.0,0.0*32
$GPRMC,112612.000,A,4146.948,N,08808.847,W,2.96,181.42,200810,,*1F
$GPGGA,112612.000,4146.948,N,08808.847,W,1,00,0.0,0.000,M,0.0,M,,*78
$GPVTG,181.417,T,0,M,2.962,N,5.486,K*5A
$GPGSA,A,3,,,,,,,,,,,,,0.0,0.0,0.0*32
$GPRMC,112612.000,A,4146.947,N,08808.847,W,0.00,181.42,200810,,*1D
$GPGGA,112612.000,4146.947,N,08808.847,W,1,00,0.0,0.000,M,0.0,M,,*77
$GPVTG,181.417,T,0,M,0.000,N,0.000,K*5A
$GPGSA,A,3,,,,,,,,,,,,,0.0,0.0,0.0*32
$GPRMC,112612.000,A,4146.947,N,08808.847,W,0.00,181.42,200810,,*1D
$GPGGA,112612.000,4146.947,N,08808.847,W,1,00,0.0,0.000,M,0.0,M,,*77
$GPVTG,181.417,T,0,M,0.000,N,0.000,K*5A
$GPGSA,A,3,,,,,,,,,,,,,0.0,0.0,0.0*32
$GPRMC,112612.000,A,4146.946,N,08808.847,W,0.00,181.42,200810,,*1C
$GPGGA,112612.000,4146.946,N,08808.847,W,1,00,0.0,0.000,M,0.0,M,,*76
$GPVTG,181.417,T,0,M,0.000,N,0.000,K*5A
$GPGSA,A,3,,,,,,,,,,,,,0.0,0.0,0.0*32
$GPRMC,112613.000,A,4146.945,N,08808.847,W,2.96,181.42,200810,,*13
$GPGGA,112613.000,4146.945,N,08808.847,W,1,00,0.0,0.000,M,0.0,M,,*74
$GPVTG,181.417,T,0,M,2.962,N,5.486,K*5A
$GPGSA,A,3,,,,,,,,,,,,,0.0,0.0,0.0*32
$GPRMC,112613.000,A,4146.944,N,08808.847,W,0.00,181.42,200810,,*1F
$GPGGA,112613.000,4146.944,N,08808.847,W,1,00,0.0,0.000,M,0.0,M,,*75
$GPVTG,181.417,T,0,M,0.000,N,0.000,K*5A
$GPGSA,A,3,,,,,,,,,,,,,0.0,0.0,0.0*32
$GPRMC,112613.000,A,4146.943,N,08808.847,W,0.00,181.42,200810,,*18
$GPGGA,112613.000,4146.943,N,08808.847,W,1,00,0.0,0.000,M,0.0,M,,*72
$GPVTG,181.417,T,0,M,0.000,N,0.000,K*5A
$GPGSA,A,3,,,,,,,,,,,,,0.0,0.0,0.0*32
$GPRMC,112613.000,A,4146.942,N,08808.847,W,0.00,181.42,200810,,*19
$GPGGA,112613.000,4146.942,N,08808.847,W,1,00,0.0,0.000,M,0.0,M,,*73
$GPVTG,181.417,T,0,M,0.000,N,0.000,K*5A
$GPGSA,A,3,,,,,,,,,,,,,0.0,0.0,0.0*32
$GPRMC,112613.000,A,4146.942,N,08808.847,W,0.00,181.42,200810,,*19
$GPGGA,112613.000,4146.942,N,08808.847,W,1,00,0.0,0.000,M,0.0,M,,*73
$GPVTG,181.417,T,0,M,0.000,N,0.000,K*5A
$GPGSA,A,3,,,,,,,,,,,,,0.0,0.0,0.0*32
$GPRMC,112614.000,A,4146.941,N,08808.847,W,2.96,181.42,200810,,*10
$GPGGA,112614.000,4146.941,N,08808.847,W,1,00,0.0,0.000,M,0.0,M,,*77
$GPVTG,181.417,T,0,M,2.962,N,5.486,K*5A
$GPGSA,A,3,,,,,,,,,,,,,0.0,0.0,0.0*32
$GPRMC,112614.000,A,4146.940,N,08808.847,W,0.00,181.42,200810,,*1C
$GPGGA,112614.000,4146.940,N,08808.847,W,1,00,0.0,0.000,M,0.0,M,,*76
$GPVTG,181.417,T,0,M,0.000,N,0.000,K*5A
$GPGSA,A,3,,,,,,,,,,,,,0.0,0.0,0.0*32
$GPRMC,112614.000,A,4146.939,N,08808.847,W,0.00,181.42,200810,,*12
$GPGGA,112614.000,4146.939,N,08808.847,W,1,00,0.0,0.000,M,0.0,M,,*78
$GPVTG,181.417,T,0,M,0.000,N,0.000,K*5A
$GPGSA,A,3,,,,,,,,,,,,,0.0,0.0,0.0*32
$GPRMC,112614.000,A,4146.938,N,08808.847,W,0.00,181.42,200810,,*13
$GPGGA,112614.000,4146.938,N,08808.847,W,1,00,0.0,0.000,M,0.0,M,,*79
$GPVTG,181.417,T,0,M,0.000,N,0.000,K*5A
$GPGSA,A,3,,,,,,,,,,,,,0.0,0.0,0.0*32
$GPRMC,112615.000,A,4146.937,N,08808.847,W,2.96,181.42,200810,,*10
$GPGGA,112615.000,4146.937,N,08808.847,W,1,00,0.0,0.000,M,0.0,M,,*77
$GPVTG,181.417,T,0,M,2.962,N,5.486,K*5A
$GPGSA,A,3,,,,,,,,,,,,,0.0,0.0,0.0*32
$GPRMC,112615.000,A,4146.937,N,08808.848,W,0.00,181.42,200810,,*12
$GPGGA,112615.000,4146.937,N,08808.848,W,1,00,0.0,0.000,M,0.0,M,,*78
$GPVTG,181.417,T,0,M,0.000,N,0.000,K*5A
$GPGSA,A,3,,,,,,,,,,,,,0.0,0.0,0.0*32
$GPRMC,112615.000,A,4146.936,N,08808.848,W,0.00,181.42,200810,,*13
$GPGGA,112615.000,4146.936,N,08808.848,W,1,00,0.0,0.000,M,0.0,M,,*79
$GPVTG,181.417,T,0,M,0.000,N,0.000,K*5A
$GPGSA,A,3,,,,,,,,,,,,,0.0,0.0,0.0*32
$GPRMC,112615.000,A,4146.935,N,08808.848,W,0.00,181.42,200810,,*10
$GPGGA,112615.000,4146.935,N,08808.848,W,1,00,0.0,0.000,M,0.0,M,,*7A
$GPVTG,181.417,T,0,M,0.000,N,0.000,K*5A
$GPGSA,A,3,,,,,,,,,,,,,0.0,0.0,0.0*32
$GPRMC,112615.000,A,4146.934,N,08808.848,W,0.00,181.42,200810,,*11
$GPGGA,112615.000,4146.934,N,08808.848,W,1,00,0.0,0.000,M,0.0,M,,*7B
$GPVTG,181.417,T,0,M,0.000,N,0.000,K*5A
$GPGSA,A,3,,,,,,,,,,,,,0.0,0.0,0.0*32
$GPRMC,112616.000,A,4146.933,N,08808.848,W,2.96,181.42,200810,,*18
$GPGGA,112616.000,4146.933,N,08808.848,W,1,00,0.0,0.000,M,0.0,M,,*7F
$GPVTG,181.417,T,0,M,2.962,N,5.486,K*5A
$GPGSA,A,3,,,,,,,,,,,,,0.0,0.0,0.0*32
$GPRMC,112616.000,A,4146.933,N,08808.848,W,0.00,181.42,200810,,*15
$GPGGA,112616.000,4146.933,N,08808.848,W,1,00,0.0,0.000,M,0.0,M,,*7F
$GPVTG,181.417,T,0,M,0.000,N,0.000,K*5A
$GPGSA,A,3,,,,,,,,,,,,,0.0,0.0,0.0*32
$GPRMC,112616.000,A,4146.932,N,08808.848,W,0.00,181.42,200810,,*14
$GPGGA,112616.000,4146.932,N,08808.848,W,1,00,0.0,0.000,M,0.0,M,,*7E
$GPVTG,181.417,T,0,M,0.000,N,0.000,K*5A
$GPGSA,A,3,,,,,,,,,,,,,0.0,0.0,0.0*32
$GPRMC,112616.000,A,4146.931,N,08808.848,W,0.00,181.42,200810,,*17
$GPGGA,112616.000,4146.931,N,08808.848,W,1,00,0.0,0.000,M,0.0,M,,*7D
$GPVTG,181.417,T,0,M,0.000,N,0.000,K*5A
$GPGSA,A,3,,,,,,,,,,,,,0.0,0.0,0.0*32
$GPRMC,112617.000,A,4146.930,N,08808.848,W,2.96,181.42,200810,,*1A
$GPGGA,112617.000,4146.930,N,08808.848,W,1,00,0.0,0.000,M,0.0,M,,*7D
$GPVTG,181.417,T,0,M,2.962,N,5.486,K*5A
$GPGSA,A,3,,,,,,,,,,,,,0.0,0.0,0.0*32
$GPRMC,112617.000,A,4146.929,N,08808.848,W,0.00,181.42,200810,,*1F
$GPGGA,112617.000,4146.929,N,08808.848,W,1,00,0.0,0.000,M,0.0,M,,*75
$GPVTG,181.417,T,0,M,0.000,N,0.000,K*5A
$GPGSA,A,3,,,,,,,,,,,,,0.0,0.0,0.0*32
$GPRMC,112617.000,A,4146.928,N,08808.848,W,0.00,181.42,200810,,*1E
$GPGGA,112617.000,4146.928,N,08808.848,W,1,00,0.0,0.000,M,0.0,M,,*74
$GPVTG,181.417,T,0,M,0.000,N,0.000,K*5A
$GPGSA,A,3,,,,,,,,,,,,,0.0,0.0,0.0*32
$GPRMC,112617.000,A,4146.928,N,08808.848,W,0.00,181.42,200810,,*1E
$GPGGA,112617.000,4146.928,N,08808.848,W,1,00,0.0,0.000,M,0.0,M,,*74
$GPVTG,181.417,T,0,M,0.000,N,0.000,K*5A
$GPGSA,A,3,,,,,,,,,,,,,0.0,0.0,0.0*32
$GPRMC,112618.000,A,4146.927,N,08808.848,W,2.96,181.42,200810,,*13
$GPGGA,112618.000,4146.927,N,08808.848,W,1,00,0.0,0.000,M,0.0,M,,*74
$GPVTG,181.417,T,0,M,2.962,N,5.486,K*5A
$GPGSA,A,3,,,,,,,,,,,,,0.0,0.0,0.0*32
$GPRMC,112618.000,A,4146.926,N,08808.848,W,0.00,181.42,200810,,*1F
$GPGGA,112618.000,4146.926,N,08808.848,W,1,00,0.0,0.000,M,0.0,M,,*75
$GPVTG,181.417,T,0,M,0.000,N,0.000,K*5A
$GPGSA,A,3,,,,,,,,,,,,,0.0,0.0,0.0*32
$GPRMC,112618.000,A,4146.925,N,08808.848,W,0.00,181.42,200810,,*1C
$GPGGA,112618.000,4146.925,N,08808.848,W,1,00,0.0,0.000,M,0.0,M,,*76
$GPVTG,181.417,T,0,M,0.000,N,0.000,K*5A
$GPGSA,A,3,,,,,,,,,,,,,0.0,0.0,0.0*32
$GPRMC,112618.000,A,4146.924,N,08808.848,W,0.00,181.42,200810,,*1D
$GPGGA,112618.000,4146.924,N,08808.848,W,1,00,0.0,0.000,M,0.0,M,,*77
$GPVTG,181.417,T,0,M,0.000,N,0.000,K*5A
$GPGSA,A,3,,,,,,,,,,,,,0.0,0.0,0.0*32
$GPRMC,112618.000,A,4146.924,N,08808.848,W,0.00,181.42,200810,,*1D
$GPGGA,112618.000,4146.924,N,08808.848,W,1,00,0.0,0.000,M,0.0,M,,*77
$GPVTG,181.417,T,0,M,0.000,N,0.000,K*5A
$GPGSA,A,3,,,,,,,,,,,,,0.0,0.0,0.0*32
$GPRMC,112619.000,A,4146.923,N,08808.848,W,2.96,181.42,200810,,*16
$GPGGA,112619.000,4146.923,N,08808.848,W,1,00,0.0,0.000,M,0.0,M,,*71
$GPVTG,181.417,T,0,M,2.962,N,5.486,K*5A
$GPGSA,A,3,,,,,,,,,,,,,0.0,0.0,0.0*32
$GPRMC,112619.000,A,4146.922,N,08808.848,W,0.00,181.42,200810,,*1A
$GPGGA,112619.000,4146.922,N,08808.848,W,1,00,0.0,0.000,M,0.0,M,,*70
$GPVTG,181.417,T,0,M,0.000,N,0.000,K*5A
$GPGSA,A,3,,,,,,,,,,,,,0.0,0.0,0.0*32
$GPRMC,112619.000,A,4146.921,N,08808.848,W,0.00,181.42,200810,,*19
$GPGGA,112619.000,4146.921,N,08808.848,W,1,00,0.0,0.000,M,0.0,M,,*73
$GPVTG,181.417,T,0,M,0.000,N,0.000,K*5A
$GPGSA,A,3,,,,,,,,,,,,,0.0,0.0,0.0*32
$GPRMC,112619.000,A,4146.920,N,08808.848,W,0.00,181.42,200810,,*18
$GPGGA,112619.000,4146.920,N,08808.848,W,1,00,0.0,0.000,M,0.0,M,,*72
$GPVTG,181.417,T,0,M,0.000,N,0.000,K*5A
$GPGSA,A,3,,,,,,,,,,,,,0.0,0.0,0.0*32
$GPRMC,112620.000,A,4146.919,N,08808.848,W,2.96,181.42,200810,,*15
$GPGGA,112620.000,4146.919,N,08808.848,W,1,00,0.0,0.000,M,0.0,M,,*72
$GPVTG,181.417,T,0,M,2.962,N,5.486,K*5A
$GPGSA,A,3,,,,,,,,,,,,,0.0,0.0,0.0*32
$GPRMC,112620.000,A,4146.919,N,08808.848,W,0.00,181.42,200810,,*18
$GPGGA,112620.000,4146.919,N,08808.848,W,1,00,0.0,0.000,M,0.0,M,,*72
$GPVTG,181.417,T,0,M,0.000,N,0.000,K*5A
$GPGSA,A,3,,,,,,,,,,,,,0.0,0.0,0.0*32
$GPRMC,112620.000,A,4146.918,N,08808.848,W,0.00,181.42,200810,,*19
$GPGGA,112620.000,4146.918,N,08808.848,W,1,00,0.0,0.000,M,0.0,M,,*73
$GPVTG,181.417,T,0,M,0.000,N,0.000,K*5A
$GPGSA,A,3,,,,,,,,,,,,,0.0,0.0,0.0*32
$GPRMC,112620.000,A,4146.917,N,08808.848,W,0.00,181.42,200810,,*16
$GPGGA,112620.000,4146.917,N,08808.848,W,1,00,0.0,0.000,M,0.0,M,,*7C
$GPVTG,181.417,T,0,M,0.000,N,0.000,K*5A
$GPGSA,A,3,,,,,,,,,,,,,0.0,0.0,0.0*32
$GPRMC,112620.000,A,4146.916,N,08808.848,W,0.00,181.42,200810,,*17
$GPGGA,112620.000,4146.916,N,08808.848,W,1,00,0.0,0.000,M,0.0,M,,*7D
$GPVTG,181.417,T,0,M,0.000,N,0.000,K*5A
$GPGSA,A,3,,,,,,,,,,,,,0.0,0.0,0.0*32
$GPRMC,112621.000,A,4146.915,N,08808.848,W,2.96,181.42,200810,,*18
$GPGGA,112621.000,4146.915,N,08808.848,W,1,00,0.0,0.000,M,0.0,M,,*7F
$GPVTG,181.417,T,0,M,2.962,N,5.486,K*5A
$GPGSA,A,3,,,,,,,,,,,,,0.0,0.0,0.0*32
$GPRMC,112621.000,A,4146.914,N,08808.848,W,0.00,181.42,200810,,*14
$GPGGA,112621.000,4146.914,N,08808.848,W,1,00,0.0,0.000,M,0.0,M,,*7E
$GPVTG,181.417,T,0,M,0.000,N,0.000,K*5A
$GPGSA,A,3,,,,,,,,,,,,,0.0,0.0,0.0*32
$GPRMC,112621.000,A,4146.914,N,08808.848,W,0.00,181.42,200810,,*14
$GPGGA,112621.000,4146.914,N,08808.848,W,1,00,0.0,0.000,M,0.0,M,,*7E
$GPVTG,181.417,T,0,M,0.000,N,0.000,K*5A
$GPGSA,A,3,,,,,,,,,,,,,0.0,0.0,0.0*32
$GPRMC,112621.000,A,4146.913,N,08808.848,W,0.00,181.42,200810,,*13
$GPGGA,112621.000,4146.913,N,08808.848,W,1,00,0.0,0.000,M,0.0,M,,*79
$GPVTG,181.417,T,0,M,0.000,N,0.000,K*5A
$GPGSA,A,3,,,,,,,,,,,,,0.0,0.0,0.0*32
$GPRMC,112622.000,A,4146.912,N,08808.848,W,2.96,181.42,200810,,*1C
$GPGGA,112622.000,4146.912,N,08808.848,W,1,00,0.0,0.000,M,0.0,M,,*7B
$GPVTG,181.417,T,0,M,2.962,N,5.486,K*5A
$GPGSA,A,3,,,,,,,,,,,,,0.0,0.0,0.0*32
$GPRMC,112622.000,A,4146.911,N,08808.848,W,0.00,181.42,200810,,*12
$GPGGA,112622.000,4146.911,N,08808.848,W,1,00,0.0,0.000,M,0.0,M,,*78
$GPVTG,181.417,T,0,M,0.000,N,0.000,K*5A
$GPGSA,A,3,,,,,,,,,,,,,0.0,0.0,0.0*32
$GPRMC,112622.000,A,4146.910,N,08808.848,W,0.00,181.42,200810,,*13
$GPGGA,112622.000,4146.910,N,08808.848,W,1,00,0.0,0.000,M,0.0,M,,*79
$GPVTG,181.417,T,0,M,0.000,N,0.000,K*5A
$GPGSA,A,3,,,,,,,,,,,,,0.0,0.0,0.0*32
$GPRMC,112622.000,A,4146.910,N,08808.848,W,0.00,181.42,200810,,*13
$GPGGA,112622.000,4146.910,N,08808.848,W,1,00,0.0,0.000,M,0.0,M,,*79
$GPVTG,181.417,T,0,M,0.000,N,0.000,K*5A
$GPGSA,A,3,,,,,,,,,,,,,0.0,0.0,0.0*32
$GPRMC,112623.000,A,4146.909,N,08808.848,W,2.96,181.42,200810,,*17
$GPGGA,112623.000,4146.909,N,08808.848,W,1,00,0.0,0.000,M,0.0,M,,*70
$GPVTG,181.417,T,0,M,2.962,N,5.486,K*5A
$GPGSA,A,3,,,,,,,,,,,,,0.0,0.0,0.0*32
$GPRMC,112623.000,A,4146.908,N,08808.848,W,0.00,181.42,200810,,*1B
$GPGGA,112623.000,4146.908,N,08808.848,W,1,00,0.0,0.000,M,0.0,M,,*71
$GPVTG,181.417,T,0,M,0.000,N,0.000,K*5A
$GPGSA,A,3,,,,,,,,,,,,,0.0,0.0,0.0*32
$GPRMC,112623.000,A,4146.907,N,08808.848,W,0.00,181.42,200810,,*14
$GPGGA,112623.000,4146.907,N,08808.848,W,1,00,0.0,0.000,M,0.0,M,,*7E
$GPVTG,181.417,T,0,M,0.000,N,0.000,K*5A
$GPGSA,A,3,,,,,,,,,,,,,0.0,0.0,0.0*32
$GPRMC,112623.000,A,4146.906,N,08808.849,W,0.00,181.42,200810,,*14
$GPGGA,112623.000,4146.906,N,08808.849,W,1,00,0.0,0.000,M,0.0,M,,*7E
$GPVTG,181.417,T,0,M,0.000,N,0.000,K*5A
$GPGSA,A,3,,,,,,,,,,,,,0.0,0.0,0.0*32
$GPRMC,112623.000,A,4146.905,N,08808.849,W,0.00,181.42,200810,,*17
$GPGGA,112623.000,4146.905,N,08808.849,W,1,00,0.0,0.000,M,0.0,M,,*7D
$GPVTG,181.417,T,0,M,0.000,N,0.000,K*5A
$GPGSA,A,3,,,,,,,,,,,,,0.0,0.0,0.0*32
$GPRMC,112624.000,A,4146.905,N,08808.849,W,2.96,181.42,200810,,*1D
$GPGGA,112624.000,4146.905,N,08808.849,W,1,00,0.0,0.000,M,0.0,M,,*7A
$GPVTG,181.417,T,0,M,2.962,N,5.486,K*5A
$GPGSA,A,3,,,,,,,,,,,,,0.0,0.0,0.0*32
$GPRMC,112624.000,A,4146.904,N,08808.849,W,0.00,181.42,200810,,*11
$GPGGA,112624.000,4146.904,N,08808.849,W,1,00,0.0,0.000,M,0.0,M,,*7B
$GPVTG,181.417,T,0,M,0.000,N,0.000,K*5A
$GPGSA,A,3,,,,,,,,,,,,,0.0,0.0,0.0*32
$GPRMC,112624.000,A,4146.903,N,08808.849,W,0.00,181.42,200810,,*16
$GPGGA,112624.000,4146.903,N,08808.849,W,1,00,0.0,0.000,M,0.0,M,,*7C
$GPVTG,181.417,T,0,M,0.000,N,0.000,K*5A
$GPGSA,A,3,,,,,,,,,,,,,0.0,0.0,0.0*32
$GPRMC,112624.000,A,4146.902,N,08808.849,W,0.00,181.42,200810,,*17
$GPGGA,112624.000,4146.902,N,08808.849,W,1,00,0.0,0.000,M,0.0,M,,*7D
$GPVTG,181.417,T,0,M,0.000,N,0.000,K*5A
$GPGSA,A,3,,,,,,,,,,,,,0.0,0.0,0.0*32
$GPRMC,112625.000,A,4146.901,N,08808.849,W,2.96,181.42,200810,,*18
$GPGGA,112625.000,4146.901,N,08808.849,W,1,00,0.0,0.000,M,0.0,M,,*7F
$GPVTG,181.417,T,0,M,2.962,N,5.486,K*5A
$GPGSA,A,3,,,,,,,,,,,,,0.0,0.0,0.0*32
$GPRMC,112625.000,A,4146.901,N,08808.849,W,0.00,181.42,200810,,*15
$GPGGA,112625.000,4146.901,N,08808.849,W,1,00,0.0,0.000,M,0.0,M,,*7F
$GPVTG,181.417,T,0,M,0.000,N,0.000,K*5A
$GPGSA,A,3,,,,,,,,,,,,,0.0,0.0,0.0*32
$GPRMC,112625.000,A,4146.900,N,08808.849,W,0.00,181.42,200810,,*14
$GPGGA,112625.000,4146.900,N,08808.849,W,1,00,0.0,0.000,M,0.0,M,,*7E
$GPVTG,181.417,T,0,M,0.000,N,0.000,K*5A
$GPGSA,A,3,,,,,,,,,,,,,0.0,0.0,0.0*32
$GPRMC,112625.000,A,4146.899,N,08808.849,W,0.00,181.42,200810,,*15
$GPGGA,112625.000,4146.899,N,08808.849,W,1,00,0.0,0.000,M,0.0,M,,*7F
$GPVTG,181.417,T,0,M,0.000,N,0.000,K*5A
$GPGSA,A,3,,,,,,,,,,,,,0.0,0.0,0.0*32
$GPRMC,112625.000,A,4146.898,N,08808.849,W,0.00,181.42,200810,,*14
$GPGGA,112625.000,4146.898,N,08808.849,W,1,00,0.0,0.000,M,0.0,M,,*7E
$GPVTG,181.417,T,0,M,0.000,N,0.000,K*5A
$GPGSA,A,3,,,,,,,,,,,,,0.0,0.0,0.0*32
$GPRMC,112626.000,A,4146.897,N,08808.849,W,2.96,181.42,200810,,*15
$GPGGA,112626.000,4146.897,N,08808.849,W,1,00,0.0,0.000,M,0.0,M,,*72
$GPVTG,181.417,T,0,M,2.962,N,5.486,K*5A
$GPGSA,A,3,,,,,,,,,,,,,0.0,0.0,0.0*32
$GPRMC,112626.000,A,4146.896,N,08808.849,W,0.00,181.42,200810,,*19
$GPGGA,112626.000,4146.896,N,08808.849,W,1,00,0.0,0.000,M,0.0,M,,*73
$GPVTG,181.417,T,0,M,0.000,N,0.000,K*5A
$GPGSA,A,3,,,,,,,,,,,,,0.0,0.0,0.0*32
$GPRMC,112626.000,A,4146.896,N,08808.849,W,0.00,181.42,200810,,*19
$GPGGA,112626.000,4146.896,N,08808.849,W,1,00,0.0,0.000,M,0.0,M,,*73
$GPVTG,181.417,T,0,M,0.000,N,0.000,K*5A
$GPGSA,A,3,,,,,,,,,,,,,0.0,0.0,0.0*32
$GPRMC,112626.000,A,4146.895,N,08808.849,W,0.00,181.42,200810,,*1A
$GPGGA,112626.000,4146.895,N,08808.849,W,1,00,0.0,0.000,M,0.0,M,,*70
$GPVTG,181.417,T,0,M,0.000,N,0.000,K*5A
$GPGSA,A,3,,,,,,,,,,,,,0.0,0.0,0.0*32
$GPRMC,112627.000,A,4146.894,N,08808.849,W,2.96,181.42,200810,,*17
$GPGGA,112627.000,4146.894,N,08808.849,W,1,00,0.0,0.000,M,0.0,M,,*70
$GPVTG,181.417,T,0,M,2.962,N,5.486,K*5A
$GPGSA,A,3,,,,,,,,,,,,,0.0,0.0,0.0*32
$GPRMC,112627.000,A,4146.893,N,08808.849,W,0.00,181.42,200810,,*1D
$GPGGA,112627.000,4146.893,N,08808.849,W,1,00,0.0,0.000,M,0.0,M,,*77
$GPVTG,181.417,T,0,M,0.000,N,0.000,K*5A
$GPGSA,A,3,,,,,,,,,,,,,0.0,0.0,0.0*32
$GPRMC,112627.000,A,4146.892,N,08808.849,W,0.00,181.42,200810,,*1C
$GPGGA,112627.000,4146.892,N,08808.849,W,1,00,0.0,0.000,M,0.0,M,,*76
$GPVTG,181.417,T,0,M,0.000,N,0.000,K*5A
$GPGSA,A,3,,,,,,,,,,,,,0.0,0.0,0.0*32
$GPRMC,112627.000,A,4146.892,N,08808.849,W,0.00,181.42,200810,,*1C
$GPGGA,112627.000,4146.892,N,08808.849,W,1,00,0.0,0.000,M,0.0,M,,*76
$GPVTG,181.417,T,0,M,0.000,N,0.000,K*5A
$GPGSA,A,3,,,,,,,,,,,,,0.0,0.0,0.0*32
$GPRMC,112628.000,A,4146.891,N,08808.849,W,2.96,181.42,200810,,*1D
$GPGGA,112628.000,4146.891,N,08808.849,W,1,00,0.0,0.000,M,0.0,M,,*7A
$GPVTG,181.417,T,0,M,2.962,N,5.486,K*5A
$GPGSA,A,3,,,,,,,,,,,,,0.0,0.0,0.0*32
$GPRMC,112628.000,A,4146.890,N,08808.849,W,0.00,181.42,200810,,*11
$GPGGA,112628.000,4146.890,N,08808.849,W,1,00,0.0,0.000,M,0.0,M,,*7B
$GPVTG,181.417,T,0,M,0.000,N,0.000,K*5A
$GPGSA,A,3,,,,,,,,,,,,,0.0,0.0,0.0*32
$GPRMC,112628.000,A,4146.889,N,08808.849,W,0.00,181.42,200810,,*19
$GPGGA,112628.000,4146.889,N,08808.849,W,1,00,0.0,0.000,M,0.0,M,,*73
$GPVTG,181.417,T,0,M,0.000,N,0.000,K*5A
$GPGSA,A,3,,,,,,,,,,,,,0.0,0.0,0.0*32
$GPRMC,112628.000,A,4146.888,N,08808.849,W,0.00,181.42,200810,,*18
