$GPGGA,154128,3958.8046,N,07525.4031,W,1,04,5.6,101.2,M,34.5,M,,*52
$GPRMC,154128,A,3958.8046,N,07525.4031,W,610.3,59.8,280714,5,E,A*2F
$GPGSV,8,1,32,01,27,022,-4,02,71,356,39,03,05,141,-25,04,18,312,-12*69
$GPGSV,8,2,32,05,86,328,50,06,81,053,46,07,43,252,13,08,89,084,51*78
$GPGSV,8,3,32,09,90,062,52,10,76,263,43,11,78,343,45,12,69,101,38*7D
$GPGSV,8,4,32,13,85,034,49,14,88,219,51,15,54,184,24,16,61,172,31*72
$GPGSV,8,5,32,17,41,322,12,18,89,275,51,19,66,336,35,20,03,314,00*75
$GPGSV,8,6,32,21,83,337,48,22,50,180,21,23,56,210,26,24,54,045,25*7E
$GPGSV,8,7,32,25,88,081,51,26,85,044,49,27,45,216,16,28,04,242,00*75
$GPGSV,8,8,32,29,88,307,51,30,10,259,-21,31,58,323,28,32,60,342,30*57
$GPGGA,154130,3959.0012,N,07525.0333,W,1,04,5.6,134.0,M,34.5,M,,*52
$GPRMC,154130,A,3959.0012,N,07525.0333,W,620.8,55.2,280714,5,E,A*25
$GPGSV,8,1,32,01,26,023,-4,02,71,357,39,03,05,142,00,04,19,313,-12*41
$GPGSV,8,2,32,05,86,329,50,06,81,054,47,07,42,253,13,08,89,085,51*7E
$GPGSV,8,3,32,09,90,063,52,10,76,264,43,11,78,344,45,12,69,102,38*7F
$GPGSV,8,4,32,13,85,035,49,14,88,220,51,15,54,185,25,16,61,173,31*78
$GPGSV,8,5,32,17,41,323,11,18,89,276,51,19,66,337,35,20,03,315,00*74
$GPGSV,8,6,32,21,83,338,48,22,50,181,21,23,55,211,26,24,54,046,25*71
$GPGSV,8,7,32,25,88,082,51,26,86,045,50,27,45,217,16,28,05,243,00*7D
$GPGSV,8,8,32,29,88,308,51,30,09,260,-21,31,58,324,28,32,60,343,30*5C
$GPGGA,154132,3959.2231,N,07524.6782,W,1,04,5.6,171.0,M,34.5,M,,*59
$GPRMC,154132,A,3959.2231,N,07524.6782,W,632.1,50.8,280714,5,E,A*2A
$GPGSV,8,1,32,01,26,023,-4,02,71,357,39,03,04,142,00,04,19,313,-11*43
$GPGSV,8,2,32,05,85,329,49,06,81,054,47,07,42,253,12,08,89,085,51*74
$GPGSV,8,3,32,09,90,063,52,10,76,264,44,11,78,344,44,12,69,102,38*79
$GPGSV,8,4,32,13,85,035,49,14,88,220,51,15,54,185,25,16,62,173,31*7B
$GPGSV,8,5,32,17,41,323,11,18,89,276,51,19,66,337,35,20,03,315,00*74
$GPGSV,8,6,32,21,83,338,48,22,51,181,21,23,55,211,26,24,54,046,24*71
$GPGSV,8,7,32,25,88,082,51,26,86,045,50,27,45,217,15,28,05,243,-25*54
$GPGSV,8,8,32,29,88,308,51,30,09,260,-21,31,58,324,28,32,60,343,30*5C
$GPGGA,154134,3959.4693,N,07524.3394,W,1,04,5.6,212.0,M,34.5,M,,*55
$GPRMC,154134,A,3959.4693,N,07524.3394,W,643.9,46.5,280714,5,E,A*24
$GPGSV,8,1,32,01,26,023,-4,02,71,357,39,03,04,142,00,04,19,313,-11*43
$GPGSV,8,2,32,05,85,329,49,06,81,054,47,07,42,253,12,08,89,085,51*74
$GPGSV,8,3,32,09,90,063,52,10,77,264,44,11,78,344,44,12,69,102,37*77
$GPGSV,8,4,32,13,85,035,49,14,88,220,51,15,55,185,25,16,62,173,32*79
$GPGSV,8,5,32,17,40,323,11,18,89,276,51,19,65,337,35,20,04,315,00*71
$GPGSV,8,6,32,21,83,338,48,22,51,181,21,23,55,211,25,24,54,046,24*72
$GPGSV,8,7,32,25,88,082,51,26,86,045,50,27,44,217,15,28,05,243,-25*55
$GPGSV,8,8,32,29,88,308,51,30,09,260,-22,31,58,324,28,32,61,343,31*5F
$GPGGA,154136,3959.7385,N,07524.0185,W,1,04,5.6,256.9,M,34.5,M,,*5E
$GPRMC,154136,A,3959.7385,N,07524.0185,W,656.1,42.4,280714,5,E,A*2F
$GPGSV,8,1,32,01,25,023,-5,02,70,357,39,03,04,142,00,04,20,313,-11*4A
$GPGSV,8,2,32,05,85,329,49,06,81,054,47,07,41,253,12,08,89,085,51*77
$GPGSV,8,3,32,09,90,063,52,10,77,264,44,11,77,344,44,12,68,102,37*79
$GPGSV,8,4,32,13,85,035,49,14,89,220,51,15,55,185,25,16,62,173,32*78
$GPGSV,8,5,32,17,40,323,10,18,89,276,51,19,65,337,35,20,04,315,00*70
$GPGSV,8,6,32,21,82,338,48,22,51,181,22,23,55,211,25,24,53,046,24*77
$GPGSV,8,7,32,25,88,082,51,26,86,045,50,27,44,217,15,28,06,243,-25*56
$GPGSV,8,8,32,29,87,308,51,30,08,260,-22,31,59,324,29,32,61,343,31*51
$GPGGA,154138,4000.0294,N,07523.7173,W,1,04,5.6,305.3,M,34.5,M,,*50
$GPRMC,154138,A,4000.0294,N,07523.7173,W,668.4,38.4,280714,5,E,A*29
$GPGSV,8,1,32,01,25,023,-5,02,70,357,39,03,03,142,00,04,20,313,-10*4C
$GPGSV,8,2,32,05,85,329,49,06,81,054,47,07,41,253,12,08,89,085,51*77
$GPGSV,8,3,32,09,90,063,52,10,77,264,44,11,77,344,44,12,68,102,37*79
$GPGSV,8,4,32,13,85,035,49,14,89,220,51,15,55,185,26,16,62,173,32*7B
$GPGSV,8,5,32,17,40,323,10,18,89,276,51,19,65,337,34,20,04,315,00*71
$GPGSV,8,6,32,21,82,338,48,22,51,181,22,23,54,211,25,24,53,046,24*76
$GPGSV,8,7,32,25,88,082,51,26,86,045,50,27,44,217,14,28,06,243,-24*56
$GPGSV,8,8,32,29,87,308,51,30,08,260,-22,31,59,324,29,32,61,343,31*51
$GPGGA,154140,4000.3406,N,07523.4371,W,1,04,5.6,357.2,M,34.5,M,,*54
$GPRMC,154140,A,4000.3406,N,07523.4371,W,680.5,34.6,280714,5,E,A*22
$GPGSV,8,1,32,01,25,024,-5,02,70,358,39,03,03,143,00,04,20,314,-10*42
$GPGSV,8,2,32,05,85,330,49,06,82,055,47,07,41,254,11,08,89,086,51*7A
$GPGSV,8,3,32,09,90,064,52,10,77,265,44,11,77,345,44,12,68,103,37*7F
$GPGSV,8,4,32,13,86,036,50,14,89,221,51,15,55,186,26,16,63,174,32*77
$GPGSV,8,5,32,17,39,324,10,18,89,277,51,19,65,338,34,20,05,316,00*74
$GPGSV,8,6,32,21,82,339,47,22,52,182,22,23,54,212,25,24,53,047,23*7D
$GPGSV,8,7,32,25,88,083,51,26,86,046,50,27,44,218,14,28,06,244,-24*5C
$GPGSV,8,8,32,29,87,309,51,30,08,261,-23,31,59,325,29,32,61,344,31*56
$GPGGA,154142,4000.6706,N,07523.1792,W,1,04,5.6,412.2,M,34.5,M,,*5A
$GPRMC,154142,A,4000.6706,N,07523.1792,W,692.3,30.9,280714,5,E,A*24
$GPGSV,8,1,32,01,25,024,-6,02,70,358,38,03,03,143,00,04,21,314,-10*41
$GPGSV,8,2,32,05,85,330,49,06,82,055,47,07,41,254,11,08,89,086,51*7A
$GPGSV,8,3,32,09,90,064,52,10,77,265,44,11,77,345,44,12,68,103,37*7F
$GPGSV,8,4,32,13,86,036,50,14,89,221,51,15,56,186,26,16,63,174,32*74
$GPGSV,8,5,32,17,39,324,10,18,89,277,52,19,65,338,34,20,05,316,-25*5D
$GPGSV,8,6,32,21,82,339,47,22,52,182,22,23,54,212,24,24,53,047,23*7C
$GPGSV,8,7,32,25,88,083,51,26,86,046,50,27,43,218,14,28,07,244,-24*5A
$GPGSV,8,8,32,29,87,309,50,30,08,261,-23,31,59,325,29,32,62,344,31*54
$GPGGA,154144,4001.0178,N,07522.9450,W,1,04,5.6,470.1,M,34.5,M,,*57
$GPRMC,154144,A,4001.0178,N,07522.9450,W,703.4,27.3,280714,5,E,A*2C
$GPGSV,8,1,32,01,24,024,-6,02,70,358,38,03,03,143,00,04,21,314,-10*40
$GPGSV,8,2,32,05,85,330,49,06,82,055,47,07,40,254,11,08,89,086,51*7B
$GPGSV,8,3,32,09,90,064,52,10,77,265,44,11,77,345,44,12,68,103,37*7F
$GPGSV,8,4,32,13,86,036,50,14,89,221,51,15,56,186,26,16,63,174,33*75
$GPGSV,8,5,32,17,39,324,09,18,89,277,52,19,64,338,34,20,05,316,-25*54
$GPGSV,8,6,32,21,82,339,47,22,52,182,23,23,54,212,24,24,52,047,23*7C
$GPGSV,8,7,32,25,88,083,51,26,86,046,50,27,43,218,14,28,07,244,-24*5A
$GPGSV,8,8,32,29,87,309,50,30,07,261,-23,31,60,325,30,32,62,344,32*5A
$GPGGA,154146,4001.3805,N,07522.7356,W,1,04,5.6,530.5,M,34.5,M,,*5B
$GPRMC,154146,A,4001.3805,N,07522.7356,W,713.8,23.9,280714,5,E,A*22
$GPGSV,8,1,32,01,24,024,-6,02,69,358,38,03,02,143,00,04,21,314,-9*71
$GPGSV,8,2,32,05,85,330,49,06,82,055,47,07,40,254,10,08,88,086,51*7B
$GPGSV,8,3,32,09,90,064,52,10,78,265,44,11,77,345,44,12,67,103,36*7E
$GPGSV,8,4,32,13,86,036,50,14,89,221,51,15,56,186,26,16,63,174,33*75
$GPGSV,8,5,32,17,39,324,09,18,89,277,52,19,64,338,34,20,06,316,-25*57
$GPGSV,8,6,32,21,82,339,47,22,52,182,23,23,53,212,24,24,52,047,23*7B
$GPGSV,8,7,32,25,88,083,51,26,86,046,50,27,43,218,13,28,07,244,-23*5A
$GPGSV,8,8,32,29,87,309,50,30,07,261,-24,31,60,325,30,32,62,344,32*5D
$GPGGA,154148,4001.7569,N,07522.5520,W,1,04,5.6,593.3,M,34.5,M,,*5C
$GPRMC,154148,A,4001.7569,N,07522.5520,W,723.2,20.5,280714,5,E,A*2C
$GPGSV,8,1,32,01,24,024,-7,02,69,358,38,03,02,143,00,04,21,314,-9*70
$GPGSV,8,2,32,05,85,330,49,06,82,055,47,07,40,254,10,08,88,086,51*7B
$GPGSV,8,3,32,09,90,064,52,10,78,265,44,11,76,345,44,12,67,103,36*7F
$GPGSV,8,4,32,13,86,036,50,14,89,221,51,15,56,186,27,16,63,174,33*74
$GPGSV,8,5,32,17,38,324,09,18,89,277,52,19,64,338,33,20,06,316,-24*50
$GPGSV,8,6,32,21,82,339,47,22,53,182,23,23,53,212,24,24,52,047,22*7B
$GPGSV,8,7,32,25,88,083,51,26,86,046,50,27,43,218,13,28,08,244,-23*55
$GPGSV,8,8,32,29,87,309,50,30,07,261,-24,31,60,325,30,32,62,344,32*5D
$GPGGA,154150,4002.1452,N,07522.3952,W,1,04,5.6,658.0,M,34.5,M,,*51
$GPRMC,154150,A,4002.1452,N,07522.3952,W,731.6,17.2,280714,5,E,A*22
$GPGSV,8,1,32,01,23,025,-7,02,69,359,38,03,02,144,00,04,22,315,-9*72
$GPGSV,8,2,32,05,85,331,49,06,82,056,47,07,39,255,10,08,88,087,51*77
$GPGSV,8,3,32,09,90,065,52,10,78,266,45,11,76,346,43,12,67,104,36*7F
$GPGSV,8,4,32,13,86,037,50,14,89,222,51,15,57,187,27,16,64,175,33*70
$GPGSV,8,5,32,17,38,325,08,18,89,278,52,19,64,339,33,20,06,317,-24*5F
$GPGSV,8,6,32,21,82,340,47,22,53,183,23,23,53,213,23,24,52,048,22*7D
$GPGSV,8,7,32,25,88,084,51,26,87,047,50,27,42,219,13,28,08,245,-23*53
$GPGSV,8,8,32,29,87,310,50,30,06,262,-24,31,60,326,30,32,63,345,32*54
$GPGGA,154152,4002.5435,N,07522.2657,W,1,04,5.6,724.4,M,34.5,M,,*53
$GPRMC,154152,A,4002.5435,N,07522.2657,W,738.8,14.0,280714,5,E,A*28
$GPGSV,8,1,32,01,23,025,-7,02,69,359,38,03,01,144,00,04,22,315,-8*70
$GPGSV,8,2,32,05,84,331,49,06,82,056,48,07,39,255,10,08,88,087,51*79
$GPGSV,8,3,32,09,90,065,52,10,78,266,45,11,76,346,43,12,67,104,36*7F
$GPGSV,8,4,32,13,86,037,50,14,89,222,51,15,57,187,27,16,64,175,33*70
$GPGSV,8,5,32,17,38,325,08,18,89,278,52,19,63,339,33,20,07,317,-24*59
$GPGSV,8,6,32,21,81,340,47,22,53,183,24,23,53,213,23,24,51,048,22*7A
$GPGSV,8,7,32,25,88,084,51,26,87,047,50,27,42,219,12,28,08,245,-22*53
$GPGSV,8,8,32,29,87,310,50,30,06,262,-24,31,60,326,30,32,63,345,32*54
$GPGGA,154154,4002.9499,N,07522.1644,W,1,04,5.6,792.1,M,34.5,M,,*56
$GPRMC,154154,A,4002.9499,N,07522.1644,W,744.6,10.8,280714,5,E,A*2C
$GPGSV,8,1,32,01,23,025,-8,02,69,359,37,03,01,144,00,04,22,315,-8*70
$GPGSV,8,2,32,05,84,331,49,06,82,056,48,07,39,255,09,08,88,087,51*71
$GPGSV,8,3,32,09,90,065,52,10,78,266,45,11,76,346,43,12,66,104,36*7E
$GPGSV,8,4,32,13,86,037,50,14,89,222,51,15,57,187,27,16,64,175,34*77
$GPGSV,8,5,32,17,37,325,08,18,89,278,52,19,63,339,33,20,07,317,-24*56
$GPGSV,8,6,32,21,81,340,47,22,53,183,24,23,52,213,23,24,51,048,22*7B
$GPGSV,8,7,32,25,88,084,51,26,87,047,50,27,42,219,12,28,08,245,-22*53
$GPGSV,8,8,32,29,87,310,50,30,06,262,-25,31,61,326,31,32,63,345,33*54
$GPGGA,154156,4003.3623,N,07522.0917,W,1,04,5.6,860.8,M,34.5,M,,*5F
$GPRMC,154156,A,4003.3623,N,07522.0917,W,749.1,7.7,280714,5,E,A*1D
$GPGSV,8,1,32,01,22,025,-8,02,68,359,37,03,01,144,00,04,23,315,-8*71
$GPGSV,8,2,32,05,84,331,49,06,83,056,48,07,39,255,09,08,88,087,51*70
$GPGSV,8,3,32,09,90,065,52,10,78,266,45,11,76,346,43,12,66,104,35*7D
$GPGSV,8,4,32,13,86,037,50,14,89,222,51,15,57,187,28,16,64,175,34*78
$GPGSV,8,5,32,17,37,325,07,18,89,278,52,19,63,339,33,20,07,317,-23*5E
$GPGSV,8,6,32,21,81,340,47,22,54,183,24,23,52,213,23,24,51,048,21*7F
$GPGSV,8,7,32,25,87,084,51,26,87,047,50,27,41,219,12,28,09,245,-22*5E
$GPGSV,8,8,32,29,87,310,50,30,05,262,-25,31,61,326,31,32,63,345,33*57
$GPGGA,154158,4003.7788,N,07522.0479,W,1,04,5.6,930.2,M,34.5,M,,*5E
$GPRMC,154158,A,4003.7788,N,07522.0479,W,752.1,4.6,280714,5,E,A*1A
$GPGSV,8,1,32,01,22,025,-8,02,68,359,37,03,00,144,00,04,23,315,-7*7F
$GPGSV,8,2,32,05,84,331,49,06,83,056,48,07,38,255,09,08,88,087,51*71
$GPGSV,8,3,32,09,90,065,52,10,79,266,45,11,76,346,43,12,66,104,35*7C
$GPGSV,8,4,32,13,86,037,50,14,89,222,51,15,58,187,28,16,65,175,34*76
$GPGSV,8,5,32,17,37,325,07,18,89,278,52,19,63,339,32,20,08,317,-23*50
$GPGSV,8,6,32,21,81,340,47,22,54,183,24,23,52,213,22,24,51,048,21*7E
$GPGSV,8,7,32,25,87,084,51,26,87,047,50,27,41,219,12,28,09,245,-21*5D
$GPGSV,8,8,32,29,87,310,50,30,05,262,-25,31,61,326,31,32,63,345,33*57
$GPGGA,154200,4004.1974,N,07522.0333,W,1,04,5.6,1000.0,M,34.5,M,,*6C
$GPRMC,154200,A,4004.1974,N,07522.0333,W,753.6,1.5,280714,5,E,A*11
$GPGSV,8,1,32,01,22,026,-9,02,68,000,37,03,00,145,00,04,23,316,-7*70
$GPGSV,8,2,32,05,84,332,49,06,83,057,48,07,38,256,08,08,88,088,51*7E
$GPGSV,8,3,32,09,90,066,52,10,79,267,45,11,75,347,43,12,66,105,35*7D
$GPGSV,8,4,32,13,87,038,50,14,89,223,51,15,58,188,28,16,65,176,34*75
$GPGSV,8,5,32,17,37,326,07,18,90,279,52,19,63,340,32,20,08,318,-23*5B
$GPGSV,8,6,32,21,81,341,47,22,54,184,25,23,52,214,22,24,50,049,21*7E
$GPGSV,8,7,32,25,87,085,51,26,87,048,50,27,41,220,11,28,09,246,-21*59
$GPGSV,8,8,32,29,87,311,50,30,05,263,00,31,61,327,31,32,64,346,33*78
$GPGGA,154202,4004.6159,N,07522.0479,W,1,04,5.6,1069.8,M,34.5,M,,*60
$GPRMC,154202,A,4004.6159,N,07522.0479,W,753.6,358.5,280714,5,E,A*15
$GPGSV,8,1,32,01,21,026,-9,02,68,000,37,03,00,145,00,04,24,316,-7*74
$GPGSV,8,2,32,05,84,332,48,06,83,057,48,07,38,256,08,08,88,088,51*7F
$GPGSV,8,3,32,09,90,066,52,10,79,267,45,11,75,347,43,12,66,105,35*7D
$GPGSV,8,4,32,13,87,038,50,14,89,223,52,15,58,188,28,16,65,176,34*76
$GPGSV,8,5,32,17,36,326,07,18,90,279,52,19,62,340,32,20,08,318,-22*5A
$GPGSV,8,6,32,21,81,341,46,22,54,184,25,23,51,214,22,24,50,049,21*7C
$GPGSV,8,7,32,25,87,085,50,26,87,048,50,27,41,220,11,28,10,246,-21*50
$GPGSV,8,8,32,29,86,311,50,30,04,263,00,31,62,327,31,32,64,346,33*7B
$GPGGA,154204,4005.0324,N,07522.0917,W,1,04,5.6,1139.2,M,34.5,M,,*62
$GPRMC,154204,A,4005.0324,N,07522.0917,W,752.1,355.4,280714,5,E,A*13
$GPGSV,8,1,32,01,21,026,-9,02,68,000,37,03,01,145,00,04,24,316,-6*74
$GPGSV,8,2,32,05,84,332,48,06,83,057,48,07,37,256,08,08,88,088,51*70
$GPGSV,8,3,32,09,90,066,52,10,79,267,45,11,75,347,43,12,65,105,35*7E
$GPGSV,8,4,32,13,87,038,50,14,89,223,52,15,58,188,28,16,65,176,35*77
$GPGSV,8,5,32,17,36,326,06,18,90,279,52,19,62,340,32,20,08,318,-22*5B
$GPGSV,8,6,32,21,81,341,46,22,55,184,25,23,51,214,22,24,50,049,20*7C
$GPGSV,8,7,32,25,87,085,50,26,87,048,50,27,40,220,11,28,10,246,-20*50
$GPGSV,8,8,32,29,86,311,50,30,04,263,00,31,62,327,32,32,64,346,34*7F
$GPGGA,154206,4005.4448,N,07522.1644,W,1,04,5.6,1207.9,M,34.5,M,,*64
$GPRMC,154206,A,4005.4448,N,07522.1644,W,749.1,352.3,280714,5,E,A*1A
$GPGSV,8,1,32,01,21,026,-10,02,67,000,36,03,01,145,00,04,24,316,-6*42
$GPGSV,8,2,32,05,84,332,48,06,83,057,48,07,37,256,07,08,88,088,51*7F
$GPGSV,8,3,32,09,90,066,52,10,79,267,45,11,75,347,42,12,65,105,35*7F
$GPGSV,8,4,32,13,87,038,50,14,89,223,52,15,59,188,29,16,65,176,35*77
$GPGSV,8,5,32,17,36,326,06,18,90,279,52,19,62,340,32,20,09,318,-22*5A
$GPGSV,8,6,32,21,80,341,46,22,55,184,25,23,51,214,21,24,50,049,20*7E
$GPGSV,8,7,32,25,87,085,50,26,87,048,50,27,40,220,10,28,10,246,-20*51
$GPGSV,8,8,32,29,86,311,50,30,04,263,00,31,62,327,32,32,64,346,34*7F
$GPGGA,154208,4005.8512,N,07522.2657,W,1,04,5.6,1275.6,M,34.5,M,,*63
$GPRMC,154208,A,4005.8512,N,07522.2657,W,744.6,349.2,280714,5,E,A*16
$GPGSV,8,1,32,01,21,026,-10,02,67,000,36,03,01,145,00,04,25,316,-6*43
$GPGSV,8,2,32,05,84,332,48,06,83,057,48,07,37,256,07,08,88,088,51*7F
$GPGSV,8,3,32,09,90,066,52,10,79,267,45,11,75,347,42,12,65,105,34*7E
$GPGSV,8,4,32,13,87,038,50,14,89,223,52,15,59,188,29,16,66,176,35*74
$GPGSV,8,5,32,17,35,326,06,18,90,279,52,19,62,340,31,20,09,318,-21*59
$GPGSV,8,6,32,21,80,341,46,22,55,184,26,23,51,214,21,24,49,049,20*75
$GPGSV,8,7,32,25,87,085,50,26,87,048,50,27,40,220,10,28,11,246,-20*50
$GPGSV,8,8,32,29,86,311,50,30,03,263,00,31,62,327,32,32,65,346,34*79
$GPGGA,154210,4006.2495,N,07522.3952,W,1,04,5.6,1342.0,M,34.5,M,,*65
$GPRMC,154210,A,4006.2495,N,07522.3952,W,738.7,346.0,280714,5,E,A*14
$GPGSV,8,1,32,01,20,027,-10,02,67,001,36,03,02,146,00,04,25,317,-5*40
$GPGSV,8,2,32,05,83,333,48,06,83,058,48,07,37,257,07,08,88,089,51*76
$GPGSV,8,3,32,09,90,067,52,10,79,268,46,11,75,348,42,12,65,106,34*7F
$GPGSV,8,4,32,13,87,039,50,14,89,224,52,15,59,189,29,16,66,177,35*72
$GPGSV,8,5,32,17,35,327,05,18,90,280,52,19,61,341,31,20,09,319,-21*5E
$GPGSV,8,6,32,21,80,342,46,22,55,185,26,23,50,215,21,24,49,050,20*7F
$GPGSV,8,7,32,25,87,086,50,26,87,049,51,27,39,221,10,28,11,247,-20*5D
$GPGSV,8,8,32,29,86,312,50,30,03,264,00,31,63,328,32,32,65,347,34*72
$GPGGA,154212,4006.6378,N,07522.5520,W,1,04,5.6,1406.7,M,34.5,M,,*68
$GPRMC,154212,A,4006.6378,N,07522.5520,W,731.5,342.8,280714,5,E,A*1E
$GPGSV,8,1,32,01,20,027,-10,02,67,001,36,03,02,146,00,04,25,317,-5*40
$GPGSV,8,2,32,05,83,333,48,06,84,058,48,07,36,257,07,08,88,089,51*70
$GPGSV,8,3,32,09,90,067,52,10,80,268,46,11,74,348,42,12,65,106,34*78
$GPGSV,8,4,32,13,87,039,50,14,89,224,52,15,59,189,29,16,66,177,35*72
$GPGSV,8,5,32,17,35,327,05,18,90,280,52,19,61,341,31,20,10,319,-21*56
$GPGSV,8,6,32,21,80,342,46,22,56,185,26,23,50,215,21,24,49,050,19*76
$GPGSV,8,7,32,25,87,086,50,26,87,049,51,27,39,221,10,28,11,247,-19*57
$GPGSV,8,8,32,29,86,312,50,30,03,264,00,31,63,328,32,32,65,347,34*72
$GPGGA,154214,4007.0142,N,07522.7356,W,1,04,5.6,1469.5,M,34.5,M,,*6C
$GPRMC,154214,A,4007.0142,N,07522.7356,W,723.1,339.5,280714,5,E,A*17
$GPGSV,8,1,32,01,20,027,-11,02,66,001,36,03,02,146,00,04,25,317,-5*40
$GPGSV,8,2,32,05,83,333,48,06,84,058,48,07,36,257,06,08,88,089,51*71
$GPGSV,8,3,32,09,90,067,52,10,80,268,46,11,74,348,42,12,64,106,34*79
$GPGSV,8,4,32,13,87,039,50,14,89,224,52,15,60,189,30,16,66,177,35*70
$GPGSV,8,5,32,17,35,327,05,18,90,280,52,19,61,341,31,20,10,319,-20*57
$GPGSV,8,6,32,21,80,342,46,22,56,185,26,23,50,215,20,24,48,050,19*76
$GPGSV,8,7,32,25,87,086,50,26,87,049,51,27,39,221,09,28,12,247,-19*5C
$GPGSV,8,8,32,29,86,312,50,30,03,264,00,31,63,328,33,32,65,347,35*72
$GPGGA,154216,4007.3769,N,07522.9450,W,1,04,5.6,1529.9,M,34.5,M,,*64
$GPRMC,154216,A,4007.3769,N,07522.9450,W,713.6,336.2,280714,5,E,A*1A
$GPGSV,8,1,32,01,19,027,-11,02,66,001,35,03,03,146,00,04,26,317,-4*4A
$GPGSV,8,2,32,05,83,333,48,06,84,058,48,07,36,257,06,08,87,089,51*7E
$GPGSV,8,3,32,09,90,067,52,10,80,268,46,11,74,348,42,12,64,106,34*79
$GPGSV,8,4,32,13,87,039,50,14,89,224,52,15,60,189,30,16,66,177,36*73
$GPGSV,8,5,32,17,34,327,04,18,90,280,52,19,61,341,31,20,10,319,-20*57
$GPGSV,8,6,32,21,80,342,46,22,56,185,26,23,50,215,20,24,48,050,19*76
$GPGSV,8,7,32,25,87,086,50,26,88,049,51,27,39,221,09,28,12,247,-19*53
$GPGSV,8,8,32,29,86,312,50,30,02,264,00,31,63,328,33,32,65,347,35*73
$GPGGA,154218,4007.7241,N,07523.1792,W,1,04,5.6,1587.8,M,34.5,M,,*60
$GPRMC,154218,A,4007.7241,N,07523.1792,W,703.2,332.7,280714,5,E,A*1F
$GPGSV,8,1,32,01,19,027,-11,02,66,001,35,03,03,146,00,04,26,317,-4*4A
$GPGSV,8,2,32,05,83,333,48,06,84,058,48,07,35,257,06,08,87,089,51*7D
$GPGSV,8,3,32,09,90,067,52,10,80,268,46,11,74,348,42,12,64,106,33*7E
$GPGSV,8,4,32,13,87,039,50,14,89,224,52,15,60,189,30,16,67,177,36*72
$GPGSV,8,5,32,17,34,327,04,18,90,280,52,19,60,341,30,20,11,319,-20*56
$GPGSV,8,6,32,21,80,342,46,22,56,185,27,23,49,215,20,24,48,050,19*7F
$GPGSV,8,7,32,25,87,086,50,26,88,049,51,27,38,221,09,28,12,247,-18*53
$GPGSV,8,8,32,29,86,312,50,30,02,264,00,31,63,328,33,32,66,347,35*70
$GPGGA,154220,4008.0541,N,07523.4371,W,1,04,5.6,1642.8,M,34.5,M,,*62
$GPRMC,154220,A,4008.0541,N,07523.4371,W,691.9,329.1,280714,5,E,A*1A
$GPGSV,8,1,32,01,19,028,-12,02,66,002,35,03,03,147,00,04,26,318,-4*4B
$GPGSV,8,2,32,05,83,334,48,06,84,059,49,07,35,258,05,08,87,090,51*7E
$GPGSV,8,3,32,09,90,068,52,10,80,269,46,11,74,349,41,12,64,107,33*73
$GPGSV,8,4,32,13,87,040,51,14,90,225,52,15,60,190,30,16,67,178,36*73
$GPGSV,8,5,32,17,34,328,04,18,90,281,52,19,60,342,30,20,11,320,-20*51
$GPGSV,8,6,32,21,79,343,46,22,57,186,27,23,49,216,20,24,48,051,18*79
$GPGSV,8,7,32,25,87,087,50,26,88,050,51,27,38,222,08,28,13,248,-18*56
$GPGSV,8,8,32,29,86,313,50,30,02,265,00,31,64,329,33,32,66,348,35*79
$GPGGA,154222,4008.3653,N,07523.7173,W,1,04,5.6,1694.7,M,34.5,M,,*64
$GPRMC,154222,A,4008.3653,N,07523.7173,W,680.1,325.5,280714,5,E,A*18
$GPGSV,8,1,32,01,18,028,-12,02,66,002,35,03,03,147,00,04,27,318,-4*4B
$GPGSV,8,2,32,05,83,334,48,06,84,059,49,07,35,258,05,08,87,090,50*7F
$GPGSV,8,3,32,09,90,068,52,10,80,269,46,11,74,349,41,12,63,107,33*74
$GPGSV,8,4,32,13,87,040,51,14,90,225,52,15,60,190,30,16,67,178,36*73
$GPGSV,8,5,32,17,33,328,04,18,90,281,52,19,60,342,30,20,11,320,-19*5C
$GPGSV,8,6,32,21,79,343,45,22,57,186,27,23,49,216,19,24,47,051,18*7F
$GPGSV,8,7,32,25,86,087,50,26,88,050,51,27,38,222,08,28,13,248,-18*57
$GPGSV,8,8,32,29,85,313,49,30,01,265,00,31,64,329,33,32,66,348,35*71
$GPGGA,154224,4008.6562,N,07524.0185,W,1,04,5.6,1743.1,M,34.5,M,,*62
$GPRMC,154224,A,4008.6562,N,07524.0185,W,667.9,321.6,280714,5,E,A*15
$GPGSV,8,1,32,01,18,028,-12,02,65,002,35,03,04,147,00,04,27,318,-3*48
$GPGSV,8,2,32,05,83,334,48,06,84,059,49,07,35,258,05,08,87,090,50*7F
$GPGSV,8,3,32,09,90,068,52,10,80,269,46,11,73,349,41,12,63,107,33*73
$GPGSV,8,4,32,13,87,040,51,14,90,225,52,15,61,190,31,16,67,178,36*73
$GPGSV,8,5,32,17,33,328,03,18,90,281,52,19,60,342,30,20,12,320,-19*58
$GPGSV,8,6,32,21,79,343,45,22,57,186,27,23,48,216,19,24,47,051,18*7E
$GPGSV,8,7,32,25,86,087,50,26,88,050,51,27,37,222,08,28,13,248,-17*57
$GPGSV,8,8,32,29,85,313,49,30,01,265,00,31,64,329,34,32,66,348,35*76
$GPGGA,154226,4008.9254,N,07524.3394,W,1,04,5.6,1788.0,M,34.5,M,,*6A
$GPRMC,154226,A,4008.9254,N,07524.3394,W,655.5,317.7,280714,5,E,A*12
$GPGSV,8,1,32,01,18,028,-13,02,65,002,35,03,04,147,00,04,27,318,-3*49
$GPGSV,8,2,32,05,82,334,48,06,84,059,49,07,34,258,04,08,87,090,50*7E
$GPGSV,8,3,32,09,90,068,52,10,81,269,46,11,73,349,41,12,63,107,33*72
$GPGSV,8,4,32,13,88,040,51,14,90,225,52,15,61,190,31,16,68,178,37*72
$GPGSV,8,5,32,17,33,328,03,18,90,281,52,19,60,342,30,20,12,320,-19*58
$GPGSV,8,6,32,21,79,343,45,22,57,186,28,23,48,216,19,24,47,051,17*7E
$GPGSV,8,7,32,25,86,087,50,26,88,050,51,27,37,222,07,28,13,248,-17*58
$GPGSV,8,8,32,29,85,313,49,30,01,265,00,31,64,329,34,32,66,348,36*75
$GPGGA,154228,4009.1716,N,07524.6782,W,1,04,5.6,1829.0,M,34.5,M,,*6C
$GPRMC,154228,A,4009.1716,N,07524.6782,W,643.1,313.5,280714,5,E,A*15
$GPGSV,8,1,32,01,17,028,-13,02,65,002,34,03,04,147,00,04,28,318,-3*48
$GPGSV,8,2,32,05,82,334,48,06,84,059,49,07,34,258,04,08,87,090,50*7E
$GPGSV,8,3,32,09,90,068,52,10,81,269,46,11,73,349,41,12,63,107,32*73
$GPGSV,8,4,32,13,88,040,51,14,90,225,52,15,61,190,31,16,68,178,37*72
$GPGSV,8,5,32,17,33,328,03,18,90,281,52,19,59,342,29,20,12,320,-18*5B
$GPGSV,8,6,32,21,79,343,45,22,58,186,28,23,48,216,19,24,47,051,17*71
$GPGSV,8,7,32,25,86,087,50,26,88,050,51,27,37,222,07,28,14,248,-17*5F
$GPGSV,8,8,32,29,85,313,49,30,00,265,00,31,65,329,34,32,67,348,36*74
$GPGGA,154230,4009.3935,N,07525.0333,W,1,04,5.6,1866.0,M,34.5,M,,*6A
$GPRMC,154230,A,4009.3935,N,07525.0333,W,631.1,309.3,280714,5,E,A*10
$GPGSV,8,1,32,01,17,029,-13,02,65,003,34,03,05,148,00,04,28,319,-2*46
$GPGSV,8,2,32,05,82,335,47,06,85,060,49,07,34,259,04,08,87,091,50*7B
$GPGSV,8,3,32,09,90,069,52,10,81,270,47,11,73,350,41,12,63,108,32*7C
$GPGSV,8,4,32,13,88,041,51,14,90,226,52,15,61,191,31,16,68,179,37*70
$GPGSV,8,5,32,17,32,329,02,18,90,282,52,19,59,343,29,20,13,321,-18*58
$GPGSV,8,6,32,21,79,344,45,22,58,187,28,23,48,217,18,24,46,052,17*75
$GPGSV,8,7,32,25,86,088,50,26,88,051,51,27,37,223,07,28,14,249,-16*50
$GPGSV,8,8,32,29,85,314,49,30,00,266,00,31,65,330,34,32,67,349,36*79
$GPGGA,154232,4009.5901,N,07525.4031,W,1,04,5.6,1898.8,M,34.5,M,,*65
$GPRMC,154232,A,4009.5901,N,07525.4031,W,619.7,304.8,280714,5,E,A*1C
$GPGSV,8,1,32,01,17,029,-14,02,65,003,34,03,05,148,-25,04,28,319,-2*6B
$GPGSV,8,2,32,05,82,335,47,06,85,060,49,07,33,259,04,08,87,091,50*7C
$GPGSV,8,3,32,09,90,069,52,10,81,270,47,11,73,350,41,12,62,108,32*7D
$GPGSV,8,4,32,13,88,041,51,14,90,226,52,15,62,191,31,16,68,179,37*73
$GPGSV,8,5,32,17,32,329,02,18,90,282,52,19,59,343,29,20,13,321,-18*58
$GPGSV,8,6,32,21,79,344,45,22,58,187,28,23,47,217,18,24,46,052,17*7A
$GPGSV,8,7,32,25,86,088,50,26,88,051,51,27,36,223,07,28,14,249,-16*51
$GPGSV,8,8,32,29,85,314,49,30,00,266,00,31,65,330,34,32,67,349,36*79
$GPGGA,154234,4009.7605,N,07525.7857,W,1,04,5.6,1927.2,M,34.5,M,,*6E
$GPRMC,154234,A,4009.7605,N,07525.7857,W,609.1,300.2,280714,5,E,A*11
$GPGSV,8,1,32,01,17,029,-14,02,64,003,34,03,05,148,-25,04,28,319,-2*6A
$GPGSV,8,2,32,05,82,335,47,06,85,060,49,07,33,259,03,08,87,091,50*7B
$GPGSV,8,3,32,09,90,069,52,10,81,270,47,11,72,350,40,12,62,108,32*7D
$GPGSV,8,4,32,13,88,041,51,14,90,226,52,15,62,191,32,16,68,179,37*70
$GPGSV,8,5,32,17,32,329,02,18,90,282,52,19,59,343,29,20,13,321,-17*57
$GPGSV,8,6,32,21,78,344,45,22,58,187,28,23,47,217,18,24,46,052,16*7A
$GPGSV,8,7,32,25,86,088,50,26,88,051,51,27,36,223,06,28,15,249,-16*51
$GPGSV,8,8,32,29,85,314,49,30,01,266,00,31,65,330,35,32,67,349,36*79
$GPGGA,154236,4009.9037,N,07526.1792,W,1,04,5.6,1951.1,M,34.5,M,,*64
$GPRMC,154236,A,4009.9037,N,07526.1792,W,599.6,295.5,280714,5,E,A*1E
$GPGSV,8,1,32,01,16,029,-14,02,64,003,34,03,06,148,-25,04,29,319,-1*6A
$GPGSV,8,2,32,05,82,335,47,06,85,060,49,07,33,259,03,08,87,091,50*7B
$GPGSV,8,3,32,09,90,069,52,10,81,270,47,11,72,350,40,12,62,108,32*7D
$GPGSV,8,4,32,13,88,041,51,14,90,226,52,15,62,191,32,16,69,179,37*71
$GPGSV,8,5,32,17,31,329,01,18,90,282,52,19,58,343,28,20,13,321,-17*57
$GPGSV,8,6,32,21,78,344,45,22,59,187,29,23,47,217,17,24,46,052,16*75
$GPGSV,8,7,32,25,86,088,50,26,88,051,51,27,36,223,06,28,15,249,-16*51
$GPGSV,8,8,32,29,85,314,49,30,01,266,00,31,65,330,35,32,68,349,37*77
$GPGGA,154238,4010.0191,N,07526.5818,W,1,04,5.6,1970.3,M,34.5,M,,*6E
$GPRMC,154238,A,4010.0191,N,07526.5818,W,591.4,290.6,280714,5,E,A*19
$GPGSV,8,1,32,01,16,029,-15,02,64,003,33,03,06,148,-24,04,29,319,-1*6D
$GPGSV,8,2,32,05,82,335,47,06,85,060,49,07,33,259,03,08,87,091,50*7B
$GPGSV,8,3,32,09,90,069,52,10,81,270,47,11,72,350,40,12,62,108,31*7E
$GPGSV,8,4,32,13,88,041,51,14,90,226,52,15,62,191,32,16,69,179,38*7E
$GPGSV,8,5,32,17,31,329,01,18,90,282,52,19,58,343,28,20,14,321,-17*50
$GPGSV,8,6,32,21,78,344,45,22,59,187,29,23,47,217,17,24,45,052,16*76
$GPGSV,8,7,32,25,86,088,50,26,88,051,51,27,35,223,06,28,15,249,-15*51
$GPGSV,8,8,32,29,85,314,49,30,01,266,00,31,66,330,35,32,68,349,37*74
$GPGGA,154240,4010.1062,N,07526.9914,W,1,04,5.6,1984.8,M,34.5,M,,*6C
$GPRMC,154240,A,4010.1062,N,07526.9914,W,584.8,285.5,280714,5,E,A*14
$GPGSV,8,1,32,01,16,030,-15,02,64,004,33,03,06,149,-24,04,29,320,-1*69
$GPGSV,8,2,32,05,82,336,47,06,85,061,49,07,32,260,02,08,87,092,50*70
$GPGSV,8,3,32,09,90,070,52,10,82,271,47,11,72,351,40,12,61,109,31*77
$GPGSV,8,4,32,13,88,042,51,14,90,227,52,15,63,192,32,16,69,180,38*78
$GPGSV,8,5,32,17,31,330,01,18,90,283,52,19,58,344,28,20,14,322,-16*5C
$GPGSV,8,6,32,21,78,345,45,22,59,188,29,23,46,218,17,24,45,053,16*77
$GPGSV,8,7,32,25,86,089,50,26,88,052,51,27,35,224,05,28,16,250,-15*5C
$GPGSV,8,8,32,29,85,315,49,30,02,267,00,31,66,331,35,32,68,350,37*7E
$GPGGA,154242,4010.1645,N,07527.4061,W,1,04,5.6,1994.5,M,34.5,M,,*66
$GPRMC,154242,A,4010.1645,N,07527.4061,W,580.0,280.4,280714,5,E,A*1A
$GPGSV,8,1,32,01,15,030,-15,02,63,004,33,03,07,149,-24,04,30,320,-0*65
$GPGSV,8,2,32,05,81,336,47,06,85,061,49,07,32,260,02,08,86,092,50*72
$GPGSV,8,3,32,09,90,070,52,10,82,271,47,11,72,351,40,12,61,109,31*77
$GPGSV,8,4,32,13,88,042,51,14,90,227,52,15,63,192,32,16,69,180,38*78
$GPGSV,8,5,32,17,30,330,01,18,90,283,52,19,58,344,28,20,14,322,-16*5D
$GPGSV,8,6,32,21,78,345,44,22,59,188,29,23,46,218,17,24,45,053,15*75
$GPGSV,8,7,32,25,85,089,49,26,88,052,51,27,35,224,05,28,16,250,-15*57
$GPGSV,8,8,32,29,84,315,49,30,02,267,00,31,66,331,35,32,68,350,37*7F
$GPGGA,154244,4010.1937,N,07527.8239,W,1,04,5.6,1999.4,M,34.5,M,,*65
$GPRMC,154244,A,4010.1937,N,07527.8239,W,577.0,275.2,280714,5,E,A*11
$GPGSV,8,1,32,01,15,030,-16,02,63,004,33,03,07,149,-24,04,30,320,-0*66
$GPGSV,8,2,32,05,81,336,47,06,85,061,49,07,32,260,02,08,86,092,50*72
$GPGSV,8,3,32,09,90,070,52,10,82,271,47,11,71,351,40,12,61,109,31*74
$GPGSV,8,4,32,13,88,042,51,14,90,227,52,15,63,192,33,16,69,180,38*79
$GPGSV,8,5,32,17,30,330,00,18,90,283,52,19,57,344,28,20,15,322,-16*52
$GPGSV,8,6,32,21,78,345,44,22,60,188,30,23,46,218,16,24,44,053,15*77
$GPGSV,8,7,32,25,85,089,49,26,88,052,51,27,35,224,05,28,16,250,-14*56
$GPGSV,8,8,32,29,84,315,49,30,02,267,00,31,66,331,35,32,68,350,37*7F
$GPGGA,154246,4010.1937,N,07528.2427,W,1,04,5.6,1999.4,M,34.5,M,,*6B
$GPRMC,154246,A,4010.1937,N,07528.2427,W,576.0,270.0,280714,5,E,A*19
$GPGSV,8,1,32,01,15,030,-16,02,63,004,33,03,07,149,-23,04,30,320,00*7C
$GPGSV,8,2,32,05,81,336,47,06,85,061,49,07,31,260,01,08,86,092,50*72
$GPGSV,8,3,32,09,90,070,52,10,82,271,47,11,71,351,40,12,61,109,31*74
$GPGSV,8,4,32,13,88,042,51,14,90,227,52,15,63,192,33,16,70,180,38*71
$GPGSV,8,5,32,17,30,330,-0,18,90,283,52,19,57,344,27,20,15,322,-16*40
$GPGSV,8,6,32,21,77,345,44,22,60,188,30,23,46,218,16,24,44,053,15*78
$GPGSV,8,7,32,25,85,089,49,26,89,052,51,27,34,224,04,28,17,250,-14*56
$GPGSV,8,8,32,29,84,315,49,30,03,267,00,31,66,331,36,32,69,350,37*7C
$GPGGA,154248,4010.1645,N,07528.6605,W,1,04,5.6,1994.5,M,34.5,M,,*65
$GPRMC,154248,A,4010.1645,N,07528.6605,W,577.0,264.8,280714,5,E,A*17
$GPGSV,8,1,32,01,14,030,-16,02,63,004,32,03,08,149,-23,04,30,320,01*72
$GPGSV,8,2,32,05,81,336,47,06,85,061,49,07,31,260,01,08,86,092,50*72
$GPGSV,8,3,32,09,90,070,52,10,82,271,47,11,71,351,39,12,60,109,30*7A
$GPGSV,8,4,32,13,88,042,51,14,90,227,52,15,63,192,33,16,70,180,38*71
$GPGSV,8,5,32,17,30,330,-0,18,90,283,52,19,57,344,27,20,15,322,-15*43
$GPGSV,8,6,32,21,77,345,44,22,60,188,30,23,45,218,16,24,44,053,14*7A
$GPGSV,8,7,32,25,85,089,49,26,89,052,51,27,34,224,04,28,17,250,-14*56
$GPGSV,8,8,32,29,84,315,49,30,03,267,00,31,67,331,36,32,69,350,38*72
$GPGGA,154250,4010.1062,N,07529.0752,W,1,04,5.6,1984.8,M,34.5,M,,*67
$GPRMC,154250,A,4010.1062,N,07529.0752,W,580.0,259.6,280714,5,E,A*11
$GPGSV,8,1,32,01,14,031,-16,02,63,005,32,03,08,150,-23,04,31,321,01*7A
$GPGSV,8,2,32,05,81,337,47,06,86,062,50,07,31,261,01,08,86,093,50*7B
$GPGSV,8,3,32,09,90,071,52,10,82,272,47,11,71,352,39,12,60,110,30*73
$GPGSV,8,4,32,13,88,043,51,14,90,228,52,15,64,193,33,16,70,181,39*79
$GPGSV,8,5,32,17,29,331,-1,18,90,284,52,19,57,345,27,20,16,323,-15*4F
$GPGSV,8,6,32,21,77,346,44,22,60,189,30,23,45,219,16,24,44,054,14*7E
$GPGSV,8,7,32,25,85,090,49,26,89,053,51,27,34,225,04,28,17,251,-13*58
$GPGSV,8,8,32,29,84,316,49,30,03,268,00,31,67,332,36,32,69,351,38*7C
$GPGGA,154252,4010.0191,N,07529.4849,W,1,04,5.6,1970.3,M,34.5,M,,*68
$GPRMC,154252,A,4010.0191,N,07529.4849,W,584.8,254.5,280714,5,E,A*1C
$GPGSV,8,1,32,01,14,031,-17,02,62,005,32,03,08,150,-22,04,31,321,01*7B
$GPGSV,8,2,32,05,81,337,46,06,86,062,50,07,30,261,01,08,86,093,50*7B
$GPGSV,8,3,32,09,90,071,52,10,82,272,48,11,71,352,39,12,60,110,30*7C
$GPGSV,8,4,32,13,88,043,51,14,90,228,52,15,64,193,33,16,70,181,39*79
$GPGSV,8,5,32,17,29,331,-1,18,90,284,52,19,56,345,27,20,16,323,-15*4E
$GPGSV,8,6,32,21,77,346,44,22,60,189,30,23,45,219,15,24,43,054,14*7A
$GPGSV,8,7,32,25,85,090,49,26,89,053,51,27,33,225,04,28,17,251,-13*5F
$GPGSV,8,8,32,29,84,316,48,30,03,268,00,31,67,332,36,32,69,351,38*7D
$GPGGA,154254,4009.9037,N,07529.8874,W,1,04,5.6,1951.1,M,34.5,M,,*61
$GPRMC,154254,A,4009.9037,N,07529.8874,W,591.4,249.4,280714,5,E,A*11
$GPGSV,8,1,32,01,13,031,-17,02,62,005,32,03,08,150,-22,04,31,321,01*7C
$GPGSV,8,2,32,05,81,337,46,06,86,062,50,07,30,261,00,08,86,093,50*7A
$GPGSV,8,3,32,09,90,071,52,10,82,272,48,11,71,352,39,12,60,110,30*7C
$GPGSV,8,4,32,13,88,043,51,14,90,228,52,15,64,193,34,16,70,181,39*7E
$GPGSV,8,5,32,17,29,331,-1,18,90,284,52,19,56,345,26,20,16,323,-14*4E
$GPGSV,8,6,32,21,77,346,44,22,61,189,31,23,44,219,15,24,43,054,14*7B
$GPGSV,8,7,32,25,85,090,49,26,89,053,51,27,33,225,03,28,18,251,-13*57
$GPGSV,8,8,32,29,84,316,48,30,04,268,00,31,67,332,36,32,69,351,38*7A
$GPGGA,154256,4009.7605,N,07530.2810,W,1,04,5.6,1927.2,M,34.5,M,,*68
$GPRMC,154256,A,4009.7605,N,07530.2810,W,599.6,244.5,280714,5,E,A*1C
$GPGSV,8,1,32,01,13,031,-17,02,62,005,32,03,09,150,-22,04,32,321,02*7D
$GPGSV,8,2,32,05,80,337,46,06,86,062,50,07,30,261,-0,08,86,093,50*66
$GPGSV,8,3,32,09,90,071,52,10,83,272,48,11,70,352,39,12,60,110,30*7C
$GPGSV,8,4,32,13,89,043,51,14,90,228,52,15,64,193,34,16,71,181,39*7E
$GPGSV,8,5,32,17,28,331,-2,18,90,284,52,19,56,345,26,20,17,323,-14*4D
$GPGSV,8,6,32,21,77,346,44,22,61,189,31,23,44,219,15,24,43,054,13*7C
$GPGSV,8,7,32,25,85,090,49,26,89,053,51,27,33,225,03,28,18,251,-12*56
$GPGSV,8,8,32,29,84,316,48,30,04,268,00,31,68,332,37,32,70,351,38*7C
$GPGGA,154258,4009.5901,N,07530.6635,W,1,04,5.6,1898.8,M,34.5,M,,*6D
$GPRMC,154258,A,4009.5901,N,07530.6635,W,609.1,239.8,280714,5,E,A*1C
$GPGSV,8,1,32,01,13,031,-18,02,62,005,31,03,09,150,-21,04,32,321,02*72
$GPGSV,8,2,32,05,80,337,46,06,86,062,50,07,30,261,-0,08,86,093,50*66
$GPGSV,8,3,32,09,90,071,52,10,83,272,48,11,70,352,39,12,59,110,29*7E
$GPGSV,8,4,32,13,89,043,51,14,90,228,52,15,65,193,34,16,71,181,39*7F
$GPGSV,8,5,32,17,28,331,-2,18,90,284,52,19,56,345,26,20,17,323,-14*4D
$GPGSV,8,6,32,21,76,346,44,22,61,189,31,23,44,219,14,24,43,054,13*7C
$GPGSV,8,7,32,25,85,090,49,26,89,053,51,27,33,225,03,28,18,251,-12*56
$GPGSV,8,8,32,29,84,316,48,30,04,268,00,31,68,332,37,32,70,351,38*7C
$GPGGA,154300,4009.3935,N,07531.0333,W,1,04,5.6,1866.0,M,34.5,M,,*6D
$GPRMC,154300,A,4009.3935,N,07531.0333,W,619.7,235.2,280714,5,E,A*14
$GPGSV,8,1,32,01,13,032,-18,02,61,006,31,03,09,151,-21,04,32,322,02*73
$GPGSV,8,2,32,05,80,338,46,06,86,063,50,07,29,262,-1,08,86,094,50*65
$GPGSV,8,3,32,09,90,072,52,10,83,273,48,11,70,353,39,12,59,111,29*7C
$GPGSV,8,4,32,13,89,044,51,14,90,229,52,15,65,194,34,16,71,182,39*7D
$GPGSV,8,5,32,17,28,332,-2,18,90,285,52,19,55,346,26,20,17,324,-13*4F
$GPGSV,8,6,32,21,76,347,43,22,61,190,31,23,44,220,14,24,42,055,13*78
$GPGSV,8,7,32,25,85,091,49,26,89,054,51,27,32,226,02,28,19,252,-12*51
$GPGSV,8,8,32,29,83,317,48,30,05,269,00,31,68,333,37,32,70,352,39*79
$GPGGA,154302,4009.1716,N,07531.3885,W,1,04,5.6,1829.0,M,34.5,M,,*6C
$GPRMC,154302,A,4009.1716,N,07531.3885,W,631.1,230.7,280714,5,E,A*12
$GPGSV,8,1,32,01,12,032,-18,02,61,006,31,03,10,151,-21,04,33,322,03*7A
$GPGSV,8,2,32,05,80,338,46,06,86,063,50,07,29,262,-1,08,85,094,49*6E
$GPGSV,8,3,32,09,90,072,52,10,83,273,48,11,70,353,38,12,59,111,29*7D
$GPGSV,8,4,32,13,89,044,51,14,90,229,52,15,65,194,34,16,71,182,39*7D
$GPGSV,8,5,32,17,28,332,-3,18,90,285,52,19,55,346,26,20,17,324,-13*4E
$GPGSV,8,6,32,21,76,347,43,22,62,190,31,23,43,220,14,24,42,055,12*7D
$GPGSV,8,7,32,25,84,091,49,26,89,054,51,27,32,226,02,28,19,252,-11*53
$GPGSV,8,8,32,29,83,317,48,30,05,269,-25,31,68,333,37,32,70,352,39*53
$GPGGA,154304,4008.9254,N,07531.7273,W,1,04,5.6,1788.0,M,34.5,M,,*63
$GPRMC,154304,A,4008.9254,N,07531.7273,W,643.1,226.5,280714,5,E,A*19
$GPGSV,8,1,32,01,12,032,-19,02,61,006,31,03,10,151,-20,04,33,322,03*7A
$GPGSV,8,2,32,05,80,338,46,06,86,063,50,07,29,262,-1,08,85,094,49*6E
$GPGSV,8,3,32,09,90,072,52,10,83,273,48,11,70,353,38,12,59,111,29*7D
$GPGSV,8,4,32,13,89,044,51,14,90,229,52,15,65,194,35,16,71,182,40*72
$GPGSV,8,5,32,17,27,332,-3,18,90,285,52,19,55,346,25,20,18,324,-13*4D
$GPGSV,8,6,32,21,76,347,43,22,62,190,32,23,43,220,14,24,42,055,12*7E
$GPGSV,8,7,32,25,84,091,49,26,89,054,51,27,32,226,02,28,19,252,-11*53
$GPGSV,8,8,32,29,83,317,48,30,05,269,-25,31,68,333,37,32,70,352,39*53
$GPGGA,154306,4008.6562,N,07532.0481,W,1,04,5.6,1743.1,M,34.5,M,,*65
$GPRMC,154306,A,4008.6562,N,07532.0481,W,655.5,222.3,280714,5,E,A*18
$GPGSV,8,1,32,01,12,032,-19,02,61,006,31,03,10,151,-20,04,33,322,03*7A
$GPGSV,8,2,32,05,80,338,46,06,86,063,50,07,28,262,-2,08,85,094,49*6C
$GPGSV,8,3,32,09,90,072,52,10,83,273,48,11,69,353,38,12,58,111,28*75
$GPGSV,8,4,32,13,89,044,51,14,90,229,52,15,65,194,35,16,71,182,40*72
$GPGSV,8,5,32,17,27,332,-3,18,90,285,52,19,55,346,25,20,18,324,-12*4C
$GPGSV,8,6,32,21,76,347,43,22,62,190,32,23,43,220,13,24,41,055,12*7A
$GPGSV,8,7,32,25,84,091,49,26,89,054,51,27,31,226,01,28,20,252,-11*59
$GPGSV,8,8,32,29,83,317,48,30,06,269,-25,31,69,333,37,32,71,352,39*50
$GPGGA,154308,4008.3653,N,07532.3494,W,1,04,5.6,1694.7,M,34.5,M,,*65
$GPRMC,154308,A,4008.3653,N,07532.3494,W,667.9,218.4,280714,5,E,A*16
$GPGSV,8,1,32,01,11,032,-19,02,60,006,30,03,11,151,-20,04,33,322,04*7F
$GPGSV,8,2,32,05,80,338,46,06,86,063,50,07,28,262,-2,08,85,094,49*6C
$GPGSV,8,3,32,09,90,072,52,10,83,273,48,11,69,353,38,12,58,111,28*75
$GPGSV,8,4,32,13,89,044,51,14,90,229,52,15,66,194,35,16,72,182,40*72
$GPGSV,8,5,32,17,27,332,-4,18,90,285,52,19,54,346,25,20,18,324,-12*4A
$GPGSV,8,6,32,21,76,347,43,22,62,190,32,23,43,220,13,24,41,055,12*7A
$GPGSV,8,7,32,25,84,091,49,26,89,054,51,27,31,226,01,28,20,252,-10*58
$GPGSV,8,8,32,29,83,317,48,30,06,269,-24,31,69,333,38,32,71,352,39*5E
$GPGGA,154310,4008.0541,N,07532.6296,W,1,04,5.6,1642.8,M,34.5,M,,*6A
$GPRMC,154310,A,4008.0541,N,07532.6296,W,680.1,214.5,280714,5,E,A*11
$GPGSV,8,1,32,01,11,033,-20,02,60,007,30,03,11,152,-20,04,34,323,04*70
$GPGSV,8,2,32,05,79,339,46,06,87,064,50,07,28,263,-2,08,85,095,49*6D
$GPGSV,8,3,32,09,90,073,52,10,83,274,48,11,69,354,38,12,58,112,28*77
$GPGSV,8,4,32,13,89,045,51,14,90,230,52,15,66,195,35,16,72,183,40*7B
$GPGSV,8,5,32,17,26,333,-4,18,90,286,52,19,54,347,25,20,19,325,-12*48
$GPGSV,8,6,32,21,75,348,43,22,63,191,32,23,42,221,13,24,41,056,11*76
$GPGSV,8,7,32,25,84,092,49,26,89,055,51,27,31,227,01,28,20,253,-10*5A
$GPGSV,8,8,32,29,83,318,48,30,06,270,-24,31,69,334,38,32,71,353,39*5F
$GPGGA,154312,4007.7241,N,07532.8874,W,1,04,5.6,1587.8,M,34.5,M,,*65
$GPRMC,154312,A,4007.7241,N,07532.8874,W,691.9,210.9,280714,5,E,A*14
$GPGSV,8,1,32,01,11,033,-20,02,60,007,30,03,11,152,-19,04,34,323,04*7A
$GPGSV,8,2,32,05,79,339,45,06,87,064,50,07,28,263,-3,08,85,095,49*6F
$GPGSV,8,3,32,09,90,073,52,10,84,274,48,11,69,354,38,12,58,112,28*70
$GPGSV,8,4,32,13,89,045,51,14,90,230,52,15,66,195,35,16,72,183,40*7B
$GPGSV,8,5,32,17,26,333,-4,18,90,286,52,19,54,347,24,20,19,325,-11*4A
$GPGSV,8,6,32,21,75,348,43,22,63,191,32,23,42,221,12,24,41,056,11*77
$GPGSV,8,7,32,25,84,092,48,26,89,055,52,27,30,227,01,28,21,253,-10*58
$GPGSV,8,8,32,29,83,318,48,30,07,270,-24,31,69,334,38,32,71,353,39*5E
